[
  { "latitude": "-17.3595", "longitude": "-145.494", "name": "Anaa Airport", "city": "Anaa", "country": "French Polynesia" },
  { "latitude": "36.8236", "longitude": "7.8103", "name": "El Mellah Airport", "city": "El Tarf", "country": "Algeria" },
  { "latitude": "57.0952", "longitude": "9.85606", "name": "Aalborg Airport", "city": "Norresundby", "country": "Denmark" },
  { "latitude": "-24.8", "longitude": "31.5333", "name": "Mala Mala", "city": "Mala Mala", "country": "South Africa" },
  { "latitude": "24.25", "longitude": "55.75", "name": "Al Ain Airport", "city": "Ayn al Faydah", "country": "United Arab Emirates" },
  { "latitude": "44.9", "longitude": "37.3167", "name": "Olkhovka Airport", "city": "Novorossiysk", "country": "Russia" },
  { "latitude": "56.3088", "longitude": "10.6154", "name": "Tirstrup Airport", "city": "Kolind", "country": "Denmark" },
  { "latitude": "47.7406", "longitude": "88.0845", "name": "Altay Airport", "city": "Altay", "country": "China" },
  { "latitude": "-19.5603", "longitude": "-46.9653", "name": "Romeu Zuma Airport", "city": "Arax\u00e1", "country": "Brazil" },
  { "latitude": "16.1947", "longitude": "52.1694", "name": "Al Gaidah Airport", "city": "Al Ghaydah", "country": "Yemen" },
  { "latitude": "53.7167", "longitude": "91.4333", "name": "Abakan", "city": "Abakan", "country": "Russian Federation" },
  { "latitude": "38.9833", "longitude": "-1.85", "name": "Los Llanos", "city": "Albacete", "country": "Spain" },
  { "latitude": "40.6514", "longitude": "-75.4342", "name": "Lehigh Valley International Airport", "city": "Allentown", "country": "United States" },
  { "latitude": "32.4164", "longitude": "-99.6803", "name": "Abilene Regional Airport", "city": "Abilene", "country": "United States" },
  { "latitude": "5.2556", "longitude": "-3.9292", "name": "Abidjan Port Bouet Airport", "city": "Abidjan", "country": "Ivory Coast" },
  { "latitude": "6.73719", "longitude": "44.2797", "name": "Kabri Dar", "city": "Kabri Dar", "country": "Ethiopia" },
  { "latitude": "67.1058", "longitude": "-157.854", "name": "Ambler Airport", "city": "Kiana", "country": "United States" },
  { "latitude": "-10.9438", "longitude": "142.453", "name": "Bamaga Airport", "city": "Seisia", "country": "Australia" },
  { "latitude": "35.0494", "longitude": "-106.625", "name": "Albuquerque International Airport", "city": "Albuquerque", "country": "United States" },
  { "latitude": "45.4536", "longitude": "-98.4189", "name": "Aberdeen Regional Airport", "city": "Aberdeen", "country": "United States" },
  { "latitude": "22.3722", "longitude": "31.6125", "name": "Abu Simbel Airport", "city": "Abu Simbel", "country": "Egypt" },
  { "latitude": "20.2961", "longitude": "41.6342", "name": "Al Baha Airport", "city": "Al Aqiq", "country": "Saudi Arabia" },
  { "latitude": "9.0056", "longitude": "7.2661", "name": "Abuja International Airport", "city": "Gwagwa", "country": "Nigeria" },
  { "latitude": "-36.0678", "longitude": "146.956", "name": "Albury Airport", "city": "Albury", "country": "Australia" },
  { "latitude": "31.5328", "longitude": "-84.1867", "name": "Southwest Georgia Regional Airport", "city": "Albany", "country": "United States" },
  { "latitude": "57.2004", "longitude": "-2.20373", "name": "Aberdeen Dyce International Airport", "city": "Aberdeen", "country": "United Kingdom" },
  { "latitude": "16.7561", "longitude": "-99.7536", "name": "General Juan N Alvarez International Airport", "city": "Acapulco", "country": "Mexico" },
  { "latitude": "5.5964", "longitude": "-0.17", "name": "Kotoka International Airport", "city": "Accra", "country": "Ghana" },
  { "latitude": "28.9521", "longitude": "-13.6085", "name": "Arrecife Airport", "city": "San Bartolom\u00e9", "country": "Spain" },
  { "latitude": "47.4887", "longitude": "9.55376", "name": "Altenrhein Airport", "city": "Altenrhein", "country": "Switzerland" },
  { "latitude": "49.7134", "longitude": "-2.22089", "name": "The Blaye Airport", "city": "St. Peter Port", "country": "United Kingdom" },
  { "latitude": "41.2568", "longitude": "-70.0649", "name": "Nantucket Memorial Airport", "city": "Nantucket", "country": "United States" },
  { "latitude": "68.1609", "longitude": "-151.696", "name": "Sahand Airport", "city": "Sahand", "country": "Iran" },
  { "latitude": "31.609", "longitude": "-97.2234", "name": "Waco Regional Airport", "city": "Waco", "country": "United States" },
  { "latitude": "40.9698", "longitude": "-124.108", "name": "Arcata Airport", "city": "Mckinleyville", "country": "United States" },
  { "latitude": "25.0887", "longitude": "104.89", "name": "Xingyi", "city": "Xingyi", "country": "China" },
  { "latitude": "39.4512", "longitude": "-74.5716", "name": "Atlantic City International Airport", "city": "Egg Harbor City", "country": "United States" },
  { "latitude": "31.0385", "longitude": "61.4962", "name": "Zabol A\/P", "city": "Zabol", "country": "Iran" },
  { "latitude": "36.9811", "longitude": "35.2803", "name": "Sakirpasa Airport", "city": "Adana", "country": "Turkey" },
  { "latitude": "38.32", "longitude": "27.1603", "name": "Gaziemir Airport", "city": "Azmir", "country": "Turkey" },
  { "latitude": "8.9783", "longitude": "38.8011", "name": "Bole International Airport", "city": "Addis Ababa", "country": "Ethiopia" },
  { "latitude": "12.8278", "longitude": "45.0306", "name": "Aden International Airport", "city": "Ash Shaykh Uthman", "country": "Yemen" },
  { "latitude": "37.8099", "longitude": "38.3357", "name": "Adiyaman Airport", "city": "Adiyaman", "country": "Turkey" },
  { "latitude": "31.973", "longitude": "35.9822", "name": "Al Matar Airport", "city": "Amman", "country": "Jordan" },
  { "latitude": "51.88", "longitude": "-176.639", "name": "Adak Airport", "city": "Adak", "country": "United States" },
  { "latitude": "-34.9464", "longitude": "138.529", "name": "Adelaide International Airport", "city": "Adelaide", "country": "Australia" },
  { "latitude": "57.7545", "longitude": "-152.512", "name": "Kodiak Airport", "city": "Kodiak", "country": "United States" },
  { "latitude": "38.2465", "longitude": "48.2951", "name": "Ardabil Airport", "city": "Ardabil", "country": "Iran" },
  { "latitude": "56.377", "longitude": "-2.86117", "name": "Leuchars Airport", "city": "St. Andrews", "country": "United Kingdom" },
  { "latitude": "12.5811", "longitude": "-81.7092", "name": "Sesquicentenario Airport", "city": "San Andr\u00e9s", "country": "Colombia" },
  { "latitude": "13.8486", "longitude": "20.8472", "name": "Abeche Airport", "city": "Ab\u00e9ch\u00e9", "country": "Chad" },
  { "latitude": "-34.5617", "longitude": "-58.4113", "name": "Aeroparque Jorge Newbery", "city": "Buenos Aires", "country": "Argentina" },
  { "latitude": "43.447", "longitude": "39.9552", "name": "Adler Airport", "city": "Sochi", "country": "Russia" },
  { "latitude": "62.5607", "longitude": "6.11129", "name": "Vigra Airport", "city": "Vigra", "country": "Norway" },
  { "latitude": "66.55", "longitude": "-152.65", "name": "Allakaket Airport", "city": "Allakaket", "country": "United States" },
  { "latitude": "31.323", "longitude": "-92.5417", "name": "Alexandria International Airport", "city": "Alexandria", "country": "United States" },
  { "latitude": "65.6561", "longitude": "-18.0923", "name": "Akureyri Airport", "city": "Akureyri", "country": "Iceland" },
  { "latitude": "-34.5886", "longitude": "-68.4028", "name": "San Rafael Airport", "city": "San Rafael", "country": "Argentina" },
  { "latitude": "-9.8661", "longitude": "-56.1044", "name": "Alta Floresta Airport", "city": "Alta Floresta", "country": "Brazil" },
  { "latitude": "41.6136", "longitude": "64.2331", "name": "Zarafshan Airport", "city": "Zarafshan", "country": "Uzbekistan" },
  { "latitude": "-9.18333", "longitude": "160.95", "name": "Afutara Aerodrome", "city": "Afutara", "country": "Solomon Islands" },
  { "latitude": "36.1903", "longitude": "57.7094", "name": "Sabzevar Airport", "city": "Sabzevar", "country": "Iran" },
  { "latitude": "30.3833", "longitude": "-9.55", "name": "Almassira Airport", "city": "Agadir", "country": "Morocco" },
  { "latitude": "44.1736", "longitude": "0.59223", "name": "La Garenne Airport", "city": "Laplume", "country": "France" },
  { "latitude": "56.2873", "longitude": "12.8675", "name": "Angelholm Airport", "city": "Angelholm", "country": "Sweden" },
  { "latitude": "-9.33333", "longitude": "149.15", "name": "Wanigela", "city": "Wanigela", "country": "Papua New Guinea" },
  { "latitude": "65.6667", "longitude": "-37.6667", "name": "Angmagssalik Airport", "city": "Angmassalik", "country": "Greenland" },
  { "latitude": "57.4996", "longitude": "-134.577", "name": "Angoon Airport", "city": "Angoon", "country": "United States" },
  { "latitude": "36.6749", "longitude": "-4.49298", "name": "Malaga Airport", "city": "Malaga", "country": "Spain" },
  { "latitude": "27.1632", "longitude": "77.9788", "name": "Agra Airport", "city": "Agra", "country": "India" },
  { "latitude": "33.3735", "longitude": "-81.9732", "name": "Bush Field Airport", "city": "Augusta", "country": "United States" },
  { "latitude": "-25.5266", "longitude": "-54.6226", "name": "Alejo Garcia Airport", "city": "Presidente Franco", "country": "Paraguay" },
  { "latitude": "21.7047", "longitude": "-102.317", "name": "Aguascalientes Airport", "city": "Aguascalientes", "country": "Mexico" },
  { "latitude": "9.55194", "longitude": "-69.2367", "name": "Acarigua", "city": "Acarigua", "country": "Venezuela" },
  { "latitude": "10.8415", "longitude": "72.175", "name": "Agatti Island Airport", "city": "Agatti Island", "country": "India" },
  { "latitude": "18.24", "longitude": "42.6556", "name": "Abha Airport", "city": "Hajlah", "country": "Saudi Arabia" },
  { "latitude": "-14.5", "longitude": "-1.3", "name": "Ahe Airport", "city": "Ahe", "country": "French Polynesia" },
  { "latitude": "40.6319", "longitude": "8.29279", "name": "Alghero Airport", "city": "Alghero", "country": "Italy" },
  { "latitude": "15.4534", "longitude": "-84.4041", "name": "Ahuas Airport", "city": "Auas", "country": "Honduras" },
  { "latitude": "35.1781", "longitude": "-3.8383", "name": "Cote du Rif Airport", "city": "Al Hoceima", "country": "Morocco" },
  { "latitude": "42.0622", "longitude": "-102.81", "name": "Alliance Municipal Airport", "city": "Alliance", "country": "United States" },
  { "latitude": "70.6139", "longitude": "-159.857", "name": "Wainwright Airport", "city": "Wainwright", "country": "United States" },
  { "latitude": "-18.8299", "longitude": "-159.765", "name": "Aitutaki Airport", "city": "Aitutaki", "country": "Cook Islands" },
  { "latitude": "-20.0333", "longitude": "-158.1", "name": "Atiu Island", "city": "Atiu Island", "country": "Cook Islands" },
  { "latitude": "41.9204", "longitude": "8.79778", "name": "Campo Dell Oro Airport", "city": "Ajaccio", "country": "France" },
  { "latitude": "29.7897", "longitude": "40.1039", "name": "Al Jouf Airport", "city": "Sakakah", "country": "Saudi Arabia" },
  { "latitude": "39.7239", "longitude": "43.0618", "name": "Agri Airport", "city": "Agr\u0131", "country": "Turkey" },
  { "latitude": "23.7361", "longitude": "92.8083", "name": "Aizwal Airport", "city": "Aizawl", "country": "India" },
  { "latitude": "-12.2234", "longitude": "44.3709", "name": "Comoros", "city": "Anjouan", "country": "Comoros" },
  { "latitude": "65.592", "longitude": "19.2647", "name": "Arvidsjaur Airport", "city": "Arvidsjaur", "country": "Sweden" },
  { "latitude": "-10.985", "longitude": "-37.0733", "name": "Santa Maria Airport", "city": "Aracaju", "country": "Brazil" },
  { "latitude": "32.7026", "longitude": "108.912", "name": "Ankang Airport", "city": "Ankang", "country": "China" },
  { "latitude": "52.2217", "longitude": "-174.204", "name": "Atka Airport", "city": "Atka", "country": "United States" },
  { "latitude": "24.1819", "longitude": "23.3189", "name": "Kufra Airport", "city": "Kufrah", "country": "Libya" },
  { "latitude": "60.8866", "longitude": "-161.218", "name": "Akiak Airport", "city": "Bethel", "country": "United States" },
  { "latitude": "43.665", "longitude": "142.453", "name": "Asahikawa Airport", "city": "Asahikawa-shi", "country": "Japan" },
  { "latitude": "56.95", "longitude": "-154.167", "name": "Akhiok Airport", "city": "Kodiak", "country": "United States" },
  { "latitude": "-37.0085", "longitude": "174.782", "name": "Auckland International Airport", "city": "Manukau City", "country": "New Zealand" },
  { "latitude": "58.6775", "longitude": "-156.655", "name": "King Salmon Airport", "city": "King Salmon", "country": "United States" },
  { "latitude": "68.1916", "longitude": "-151.79", "name": "Anaktuvuk Pass Airport", "city": "Anaktuvuk Pass", "country": "United States" },
  { "latitude": "-27.6667", "longitude": "27.3167", "name": "Kroonstad Airport", "city": "Kroonstad", "country": "South Africa" },
  { "latitude": "41.171", "longitude": "80.1982", "name": "Aksu Airport", "city": "Aksu", "country": "China" },
  { "latitude": "60.8142", "longitude": "-78.1509", "name": "Akulivik Airport", "city": "Chisasibi", "country": "Canada" },
  { "latitude": "50.2362", "longitude": "57.2115", "name": "Aktyubinsk Airport", "city": "Aqtobe", "country": "Kazakhstan" },
  { "latitude": "20.1303", "longitude": "92.8803", "name": "Sittwe Airport", "city": "Sittwe", "country": "Myanmar" },
  { "latitude": "43.3608", "longitude": "77.0319", "name": "Alma Ata Airport", "city": "Almaty", "country": "Kazakhstan" },
  { "latitude": "42.7426", "longitude": "-73.809", "name": "Albany International Airport", "city": "latitudeham", "country": "United States" },
  { "latitude": "38.2844", "longitude": "-0.5576", "name": "Alicante Airport", "city": "Elx", "country": "Spain" },
  { "latitude": "69.9793", "longitude": "23.3571", "name": "Alta Airport", "city": "Alta", "country": "Norway" },
  { "latitude": "36.6993", "longitude": "3.21935", "name": "Houari Boumediene Airport", "city": "Algiers", "country": "Algeria" },
  { "latitude": "-34.9447", "longitude": "117.808", "name": "Albany Airport", "city": "Albany", "country": "Australia" },
  { "latitude": "32.8407", "longitude": "-105.994", "name": "Alamogordo White Sands Regional Airport", "city": "Alamogordo", "country": "United States" },
  { "latitude": "42.5509", "longitude": "-92.3951", "name": "Waterloo Municipal Airport", "city": "Waterloo", "country": "United States" },
  { "latitude": "36.1808", "longitude": "37.2267", "name": "Aleppo International Airport", "city": "Djibrine", "country": "Syria" },
  { "latitude": "37.4444", "longitude": "-105.865", "name": "San Luis Valley Regional Airport", "city": "Alamosa", "country": "United States" },
  { "latitude": "46.0879", "longitude": "-118.283", "name": "Walla Walla Regional Airport", "city": "Walla Walla", "country": "United States" },
  { "latitude": "31.1845", "longitude": "29.9491", "name": "An-Nuzhah Airport", "city": "Alexandria", "country": "Egypt" },
  { "latitude": "35.2177", "longitude": "-101.706", "name": "Amarillo International Airport", "city": "Amarillo", "country": "United States" },
  { "latitude": "23.0728", "longitude": "72.6328", "name": "Sardar Vallabhbhai Patel International Airport", "city": "Ahmedabad", "country": "India" },
  { "latitude": "6.01327", "longitude": "37.5405", "name": "Ethiopia", "city": "Arba Mintch", "country": "Ethiopia" },
  { "latitude": "-8.562", "longitude": "116.098", "name": "Selaparang", "city": "Mataram", "country": "Indonesia" },
  { "latitude": "31.7231", "longitude": "35.9936", "name": "Queen Alia International Airport", "city": "Amman", "country": "Jordan" },
  { "latitude": "-3.7067", "longitude": "128.078", "name": "Pattimura Airport", "city": "Ambon", "country": "Indonesia" },
  { "latitude": "52.3122", "longitude": "4.77511", "name": "Schiphol Airport", "city": "Schiphol Zuid", "country": "Netherlands" },
  { "latitude": "69.7638", "longitude": "61.5586", "name": "Amderma Airport", "city": "Nar'yan-Mar", "country": "Russia" },
  { "latitude": "38.4819", "longitude": "-100.608", "name": "Ambatomainty", "city": "Ambatomainty", "country": "Madagascar" },
  { "latitude": "61.1767", "longitude": "-149.961", "name": "Anchorage International Airport", "city": "Anchorage", "country": "United States" },
  { "latitude": "47.5603", "longitude": "-0.312222", "name": "A\u00e9roport d'Angers-Marc\u00e9", "city": "Seiches-sur-le-Loir", "country": "France" },
  { "latitude": "-23.44", "longitude": "-70.4419", "name": "Cerro Moreno International Airport", "city": "Antofagasta", "country": "Chile" },
  { "latitude": "45.7274", "longitude": "0.21835", "name": "Brie Champniers Airport", "city": "Champniers", "country": "France" },
  { "latitude": "61.5742", "longitude": "-159.535", "name": "Aniak Airport", "city": "Bethel", "country": "United States" },
  { "latitude": "-18.7772", "longitude": "46.8543", "name": "Madagascar", "city": "Antalaha", "country": "Madagascar" },
  { "latitude": "51.1896", "longitude": "4.45236", "name": "Deurne Airport", "city": "Antwerp", "country": "Belgium" },
  { "latitude": "17.1375", "longitude": "-61.79", "name": "V C Bird International Airport", "city": "Carlisle", "country": "Antigua and Barbuda" },
  { "latitude": "62.65", "longitude": "-160.217", "name": "Anvik Airport", "city": "Anvik", "country": "United States" },
  { "latitude": "69.3088", "longitude": "16.1236", "name": "Andoya Airport", "city": "Andenes", "country": "Norway" },
  { "latitude": "50.9794", "longitude": "12.5111", "name": "Altenburg Nobitz", "city": "Altenburg", "country": "Germany" },
  { "latitude": "39.7905", "longitude": "30.5172", "name": "Anadolu University Airport", "city": "Eski\u015fehir", "country": "Turkey" },
  { "latitude": "43.6158", "longitude": "13.3634", "name": "Falconara Airport", "city": "Falconara Marittima", "country": "Italy" },
  { "latitude": "40.7357", "longitude": "140.69", "name": "Aomori Airport", "city": "Aomori-shi", "country": "Japan" },
  { "latitude": "35.4239", "longitude": "27.1472", "name": "Karpathos Airport", "city": "Karpathos", "country": "Greece" },
  { "latitude": "40.2952", "longitude": "-78.324", "name": "Altoona-Blair County Airport", "city": "Martinsburg", "country": "United States" },
  { "latitude": "6.1947", "longitude": "100.404", "name": "Sultan Abdul Halim Airport", "city": "Kepala Batas", "country": "Malaysia" },
  { "latitude": "57.4672", "longitude": "-153.839", "name": "Amook Bay Seaplane Base", "city": "Amook", "country": "United States" },
  { "latitude": "26.1483", "longitude": "-81.7745", "name": "Naples Municipal Airport", "city": "Naples", "country": "United States" },
  { "latitude": "-8.64687", "longitude": "-131.787", "name": "French Polynesia", "city": "Apataki", "country": "French Polynesia" },
  { "latitude": "-15.1", "longitude": "39.2814", "name": "Nampula Airport", "city": "Nampula", "country": "Mozambique" },
  { "latitude": "45.07", "longitude": "-83.5683", "name": "Alpena County Regional Airport", "city": "Alpena", "country": "United States" },
  { "latitude": "7.88361", "longitude": "-76.6321", "name": "Apartado Airport", "city": "Apartad\u00f3", "country": "Colombia" },
  { "latitude": "-13.8255", "longitude": "-171.993", "name": "Faleolo Airport", "city": "Apia", "country": "Samoa" },
  { "latitude": "30.5167", "longitude": "117.033", "name": "Anqing Airport", "city": "Anqing", "country": "China" },
  { "latitude": "28.3317", "longitude": "46.13", "name": "Hafr Al Batin Airport", "city": "Qaisumah", "country": "Saudi Arabia" },
  { "latitude": "29.6119", "longitude": "35.0178", "name": "Aqaba International Airport", "city": "Aqaba", "country": "Jordan" },
  { "latitude": "-16.3372", "longitude": "-71.5692", "name": "Rodriguez Ballongitude Airport", "city": "Arequipa", "country": "Peru" },
  { "latitude": "68.1167", "longitude": "-145.583", "name": "Arctic Village Airport", "city": "Arctic Village", "country": "United States" },
  { "latitude": "35.1437", "longitude": "-93.1848", "name": "Alor Island", "city": "Alor Island", "country": "Indonesia" },
  { "latitude": "64.4465", "longitude": "40.4242", "name": "Arkhangelsk Airport", "city": "Arkhangel'sk", "country": "Russia" },
  { "latitude": "-18.3458", "longitude": "-70.3358", "name": "Chacalluta Airport", "city": "Arica", "country": "Chile" },
  { "latitude": "-3.36515", "longitude": "36.6738", "name": "Arusha Airport", "city": "Arusha", "country": "Tanzania" },
  { "latitude": "-30.5308", "longitude": "151.618", "name": "Armidale Airport", "city": "Armidale", "country": "Australia" },
  { "latitude": "59.6521", "longitude": "17.9317", "name": "Arlanda Airport", "city": "M\u00e4rst", "country": "Sweden" },
  { "latitude": "43.9942", "longitude": "-76.0232", "name": "Watertown International Airport", "city": "Dexter", "country": "United States" },
  { "latitude": "-21.1436", "longitude": "-50.4261", "name": "Aracatuba Airport", "city": "Ara\u00e7atuba", "country": "Brazil" },
  { "latitude": "45.9296", "longitude": "-89.7371", "name": "Lakelan-Noble F. Lee Memerial Field Airport", "city": "Woodruff", "country": "United States" },
  { "latitude": "46.1805", "longitude": "21.2609", "name": "Ceala Airport", "city": "Arad", "country": "Romania" },
  { "latitude": "31.4124", "longitude": "-97.0528", "name": "Assab", "city": "Assab", "country": "Ethiopia" },
  { "latitude": "37.9842", "longitude": "58.3294", "name": "Ashkhabad Northwest Airport", "city": "Ashgabat", "country": "Turkmenistan" },
  { "latitude": "24.6978", "longitude": "-77.7961", "name": "Andros Town Airport", "city": "Fresh Creek", "country": "Bahamas" },
  { "latitude": "39.2197", "longitude": "-106.864", "name": "Aspen Pitkin County Airport-Sardy Field", "city": "Aspen", "country": "United States" },
  { "latitude": "46.2971", "longitude": "48.0515", "name": "Astrakhan Southeast Airport", "city": "Astrakhan'", "country": "Russia" },
  { "latitude": "-7.93586", "longitude": "-14.4081", "name": "Wideawake Fld", "city": "Georgetown, Ascension Island", "country": "St. Helena" },
  { "latitude": "28.431", "longitude": "129.712", "name": "Amami Airport", "city": "Amami O Shima", "country": "Japan" },
  { "latitude": "15.2906", "longitude": "38.9103", "name": "Yohannes Iv International Airport", "city": "Asmara", "country": "Eritrea" },
  { "latitude": "10.0611", "longitude": "34.5344", "name": "Ethiopia", "city": "Asosa", "country": "Ethiopia" },
  { "latitude": "-23.802", "longitude": "133.892", "name": "Alice Springs Airport", "city": "Alice Springs", "country": "Australia" },
  { "latitude": "38.7708", "longitude": "35.4939", "name": "Erkilet Airport", "city": "Kayseri", "country": "Turkey" },
  { "latitude": "-25.2397", "longitude": "-57.5189", "name": "Silvio Pettirossi International Airport", "city": "Colongitudeia Mariano Roque Alongitudeso", "country": "Paraguay" },
  { "latitude": "-2.63333", "longitude": "37.25", "name": "Amboseli", "city": "Amboseli", "country": "Kenya" },
  { "latitude": "23.965", "longitude": "32.8217", "name": "Aswan Airport", "city": "Aswan", "country": "Egypt" },
  { "latitude": "17.7", "longitude": "33.9833", "name": "Atbara", "city": "Atbara", "country": "Sudan" },
  { "latitude": "24.6287", "longitude": "-75.6734", "name": "Arthur's Town Airport", "city": "Arthur Town", "country": "Bahamas" },
  { "latitude": "-8.86667", "longitude": "161.033", "name": "Atoifi", "city": "Atoifi", "country": "Solomon Islands" },
  { "latitude": "37.8937", "longitude": "23.7235", "name": "Eleftherios Venizelos International Airport", "city": "Athens", "country": "Greece" },
  { "latitude": "70.4639", "longitude": "-157.331", "name": "Atqasuk Airport", "city": "Atqasuk", "country": "United States" },
  { "latitude": "33.6558", "longitude": "-84.4333", "name": "Hartsfield-Jackson Atlanta International Airport", "city": "Atlanta", "country": "United States" },
  { "latitude": "-3.2506", "longitude": "-52.2517", "name": "Altamira Airport", "city": "Altamira", "country": "Brazil" },
  { "latitude": "31.7131", "longitude": "74.7955", "name": "Raja Sansi Airport", "city": "Raja Sansi", "country": "India" },
  { "latitude": "20.5067", "longitude": "-13.0436", "name": "Atar Airport", "city": "Atar", "country": "Mauritania" },
  { "latitude": "60.865", "longitude": "-162.276", "name": "Atmautluak Airport", "city": "Atmautluak", "country": "United States" },
  { "latitude": "44.2603", "longitude": "-88.5111", "name": "Outagamie County Airport", "city": "Appleton", "country": "United States" },
  { "latitude": "44.9216", "longitude": "-97.1609", "name": "Watertown Municipal Airport", "city": "Watertown", "country": "United States" },
  { "latitude": "27.0411", "longitude": "31.0114", "name": "Asyut Airport", "city": "Asyut", "country": "Egypt" },
  { "latitude": "12.5022", "longitude": "-70.0139", "name": "Reina Beatrix International Airport", "city": "Aruba", "country": "Aruba" },
  { "latitude": "7.0703", "longitude": "-70.7406", "name": "Santiago Perez Airport", "city": "Arauca", "country": "Colombia" },
  { "latitude": "44.3181", "longitude": "-69.7933", "name": "Augusta State Airport", "city": "Augusta", "country": "United States" },
  { "latitude": "24.4331", "longitude": "54.6489", "name": "Abu Dhabi International Airport", "city": "Abu Dhabi", "country": "United Arab Emirates" },
  { "latitude": "62.6833", "longitude": "-164.633", "name": "Alakanuk Airport", "city": "Alakanuk", "country": "United States" },
  { "latitude": "-9.7719", "longitude": "-139.015", "name": "Atuona Airport", "city": "Atuona", "country": "French Polynesia" },
  { "latitude": "30.2027", "longitude": "-97.6653", "name": "Austin-Bergstrom International Airport", "city": "Austin", "country": "United States" },
  { "latitude": "-7.2281", "longitude": "-48.2403", "name": "Araguaina Airport", "city": "Araguaina", "country": "Brazil" },
  { "latitude": "-20.1909", "longitude": "169.825", "name": "Vanuatu", "city": "Aneityum", "country": "Vanuatu" },
  { "latitude": "35.4349", "longitude": "-82.5373", "name": "Asheville Regional Airport", "city": "Fletcher", "country": "United States" },
  { "latitude": "43.9056", "longitude": "4.89951", "name": "Avignon-Caumont Airport", "city": "Avignon", "country": "France" },
  { "latitude": "41.3354", "longitude": "-75.7294", "name": "Wilkes Barre Scranton International Airport", "city": "Pittston", "country": "United States" },
  { "latitude": "-9.85", "longitude": "160.417", "name": "Avu Avu", "city": "Avu Avu", "country": "Solomon Islands" },
  { "latitude": "-8.01667", "longitude": "142.75", "name": "Awaba", "city": "Awaba", "country": "Papua New Guinea" },
  { "latitude": "-19.2501", "longitude": "169.598", "name": "Aniwa Airport", "city": "Aniwa", "country": "Vanuatu" },
  { "latitude": "31.3378", "longitude": "48.7597", "name": "Ahvaz Airport", "city": "Ahvaz", "country": "Iran" },
  { "latitude": "18.2103", "longitude": "-63.0575", "name": "Wallblake Airport", "city": "Anguilla", "country": "Anguilla" },
  { "latitude": "40.8567", "longitude": "25.9567", "name": "Alexandroupolis Airport", "city": "Alexandroupolis", "country": "Greece" },
  { "latitude": "4.4564", "longitude": "-75.7681", "name": "El Eden Airport", "city": "La Tebaida", "country": "Colombia" },
  { "latitude": "22.4441", "longitude": "-73.9775", "name": "Spring Point Airport", "city": "Spring Point", "country": "Bahamas" },
  { "latitude": "-15.5098", "longitude": "-146.538", "name": "French Polynesia", "city": "Arutua", "country": "French Polynesia" },
  { "latitude": "39.6153", "longitude": "140.219", "name": "Akita Airport", "city": "Akita-shi", "country": "Japan" },
  { "latitude": "14.147", "longitude": "38.7726", "name": "Axum", "city": "Axum", "country": "Ethiopia" },
  { "latitude": "-25.1872", "longitude": "130.977", "name": "Ayers Rock Airport", "city": "Ayers Rock", "country": "Australia" },
  { "latitude": "36.9022", "longitude": "30.7917", "name": "Antalya Airport", "city": "Antalya", "country": "Turkey" },
  { "latitude": "33.3078", "longitude": "-111.656", "name": "Phoenix-Mesa Gateway Airport", "city": "Phoenix", "country": "United States" },
  { "latitude": "31.905", "longitude": "54.2786", "name": "Yazd Airport", "city": "Yezd", "country": "Iran" },
  { "latitude": "40.7324", "longitude": "72.2931", "name": "Andizhan Airport", "city": "Andijon", "country": "Uzbekistan" },
  { "latitude": "42.2398", "longitude": "-85.5563", "name": "Kalamazoo-Battle Creek International Airport", "city": "Kalamazoo", "country": "United States" },
  { "latitude": "27.8378", "longitude": "-0.1864", "name": "Touat Airport", "city": "Adrar", "country": "Algeria" },
  { "latitude": "19.2099", "longitude": "-69.3279", "name": "Samana El Catey International Airport", "city": "Samana", "country": "Dominican Republic" },
  { "latitude": "16.3764", "longitude": "120.619", "name": "Baguio Airport", "city": "Baguio City", "country": "Philippines" },
  { "latitude": "26.2736", "longitude": "50.6234", "name": "Bahrain International Airport", "city": "Al Muharraq", "country": "Bahrain" },
  { "latitude": "37.93", "longitude": "41.1167", "name": "Batman Airport", "city": "Batman", "country": "Turkey" },
  { "latitude": "10.8961", "longitude": "-74.7789", "name": "Ernesto Cortissoz Airport", "city": "Soledad", "country": "Colombia" },
  { "latitude": "-7.98333", "longitude": "155.9", "name": "Balalae", "city": "Balalae", "country": "Solomon Islands" },
  { "latitude": "-22.345", "longitude": "-49.0531", "name": "Bauru Airport", "city": "Bauru", "country": "Brazil" },
  { "latitude": "40.5679", "longitude": "109.998", "name": "Baotou Airport", "city": "Baotou", "country": "China" },
  { "latitude": "53.3667", "longitude": "83.75", "name": "Barnaui West Airport", "city": "Barnaul", "country": "Russia" },
  { "latitude": "47.6589", "longitude": "23.465", "name": "Baia Mare", "city": "Baia Mare", "country": "Romania" },
  { "latitude": "-45.9167", "longitude": "-71.6869", "name": "Balmaceda Airport", "city": "Balmaceda", "country": "Chile" },
  { "latitude": "20.2466", "longitude": "85.8152", "name": "Bhubaneswar Airport", "city": "Bhubaneswar", "country": "India" },
  { "latitude": "-17.8333", "longitude": "25.1667", "name": "Kasane Airport", "city": "Kasane", "country": "Botswana" },
  { "latitude": "3.73333", "longitude": "115.467", "name": "Bario Airport", "city": "Nanga Medamit", "country": "Malaysia" },
  { "latitude": "10.3917", "longitude": "44.95", "name": "Berbera Airport", "city": "Berbera", "country": "Somalia" },
  { "latitude": "51.3252", "longitude": "-0.84173", "name": "Blackbushe Airport", "city": "Camberley", "country": "United Kingdom" },
  { "latitude": "44.4966", "longitude": "26.087", "name": "Aeroportul National Bucuresti-Baneasa", "city": "Bucharest", "country": "Romania" },
  { "latitude": "20.3644", "longitude": "-74.5064", "name": "Baracoa Airport", "city": "Baracoa", "country": "Cuba" },
  { "latitude": "10.6444", "longitude": "122.929", "name": "Bacolod Airport", "city": "Bacolod City", "country": "Philippines" },
  { "latitude": "-23.5635", "longitude": "145.305", "name": "Barcaldine Aerodrome", "city": "Barcaldine", "country": "Australia" },
  { "latitude": "10.7856", "longitude": "-83.5966", "name": "Barra Colorado Airport", "city": "Colorado", "country": "Costa Rica" },
  { "latitude": "46.5283", "longitude": "26.8997", "name": "Luizi Calugara Airport", "city": "Bac\u00e6u", "country": "Romania" },
  { "latitude": "41.3006", "longitude": "2.07976", "name": "Barcelongitudea International Airport", "city": "El Prat de Llobregat", "country": "Spain" },
  { "latitude": "32.3675", "longitude": "-64.6903", "name": "Bermuda International Airport", "city": "St. George", "country": "Bermuda" },
  { "latitude": "-24.9046", "longitude": "152.322", "name": "Bundaberg Airport", "city": "Bundaberg", "country": "Australia" },
  { "latitude": "-10.1214", "longitude": "142.142", "name": "Badu Island Airport", "city": "Badu Island", "country": "Australia" },
  { "latitude": "26.5333", "longitude": "54.8239", "name": "Bandar Lengeh Airport", "city": "Bandar Abbas", "country": "Iran" },
  { "latitude": "-3.4425", "longitude": "114.757", "name": "Syamsuddin Noor Airport", "city": "Banjarmasin", "country": "Indonesia" },
  { "latitude": "41.9271", "longitude": "-72.6816", "name": "Bradley International Airport", "city": "Windsor Locks", "country": "United States" },
  { "latitude": "-6.9017", "longitude": "107.576", "name": "Husein Sastranegara Airport", "city": "Bandung", "country": "Indonesia" },
  { "latitude": "26.5667", "longitude": "88.0833", "name": "Bhadrapur", "city": "Bhadrapur", "country": "Nepal" },
  { "latitude": "22.3367", "longitude": "73.2264", "name": "Vadodara Airport", "city": "Vadodara", "country": "India" },
  { "latitude": "41.1636", "longitude": "-73.1283", "name": "Igor I Sikorsky Memorial Airport", "city": "Stratford", "country": "United States" },
  { "latitude": "40.6626", "longitude": "17.9426", "name": "Casale Airport", "city": "Brindisi", "country": "Italy" },
  { "latitude": "69.0589", "longitude": "18.539", "name": "Bardufoss Airport", "city": "Bardufoss", "country": "Norway" },
  { "latitude": "57.4756", "longitude": "-7.37041", "name": "Benbecula Airport", "city": "Balivanich", "country": "United Kingdom" },
  { "latitude": "44.8192", "longitude": "20.3122", "name": "Surcin Airport", "city": "Sur\u010din", "country": "Serbia" },
  { "latitude": "-1.3844", "longitude": "-48.4783", "name": "Val de Caes International Airport", "city": "Belem", "country": "Brazil" },
  { "latitude": "35.6425", "longitude": "-87.1192", "name": "Benina Intl", "city": "Benghazi", "country": "Libya" },
  { "latitude": "48.4458", "longitude": "-4.41511", "name": "Guipavas Airport", "city": "Guipavas", "country": "France" },
  { "latitude": "60.7788", "longitude": "-161.847", "name": "Bethel Airport", "city": "Bethel", "country": "United States" },
  { "latitude": "-24.3544", "longitude": "139.463", "name": "Bedourie Aerodrome", "city": "Bedourie", "country": "Australia" },
  { "latitude": "-19.7958", "longitude": "34.9089", "name": "Beira Airport", "city": "Beira", "country": "Mozambique" },
  { "latitude": "33.825", "longitude": "35.4925", "name": "Beirut International Airport", "city": "Beirut", "country": "Lebanon" },
  { "latitude": "41.7964", "longitude": "-78.6407", "name": "Bradford Regional Airport", "city": "Lewis Run", "country": "United States" },
  { "latitude": "52", "longitude": "8.5", "name": "Bielefeld", "city": "Bielefeld", "country": "Germany" },
  { "latitude": "41.8683", "longitude": "-103.597", "name": "William B Heilig Field Airport", "city": "Scottsbluff", "country": "United States" },
  { "latitude": "47.5369", "longitude": "-122.304", "name": "King County International Airport-Boeing Field", "city": "Seattle", "country": "United States" },
  { "latitude": "35.4288", "longitude": "-119.044", "name": "Kern County-Meadows Field Airport", "city": "Bakersfield", "country": "United States" },
  { "latitude": "-29.0942", "longitude": "26.3027", "name": "J B M Hertzog Airport", "city": "Bloemfontein", "country": "South Africa" },
  { "latitude": "54.6542", "longitude": "-6.225", "name": "Aldergrove Airport", "city": "Crumlin", "country": "United Kingdom" },
  { "latitude": "15.2295", "longitude": "103.253", "name": "Buri Ram", "city": "Buri Ram", "country": "Thailand" },
  { "latitude": "7.1217", "longitude": "-73.1883", "name": "Palongitudeegro Airport", "city": "Bucaramanga", "country": "Colombia" },
  { "latitude": "4.3961", "longitude": "18.5203", "name": "Bangui M Poko Airport", "city": "Bangui", "country": "Central African Republic" },
  { "latitude": "13.0719", "longitude": "-59.4939", "name": "Grantley Adams International Airport", "city": "Bridgetown", "country": "Barbados" },
  { "latitude": "42.2082", "longitude": "-75.9825", "name": "Greater Binghamton Edwin A Link Field Airport", "city": "Johnson City", "country": "United States" },
  { "latitude": "60.2907", "longitude": "5.22065", "name": "Bergen Flesland Airport", "city": "Blomsterdalen", "country": "Norway" },
  { "latitude": "44.8086", "longitude": "-68.8167", "name": "Bangor International Airport", "city": "Bangor", "country": "United States" },
  { "latitude": "45.6664", "longitude": "9.699", "name": "Orio Al Serio Airport", "city": "Grassobbio", "country": "Italy" },
  { "latitude": "44.4461", "longitude": "-68.3615", "name": "Hancock County-Bar Harbor Airport", "city": "Ellsworth", "country": "United States" },
  { "latitude": "54.6151", "longitude": "-5.87096", "name": "George Best Belfast City Airport", "city": "Belfast", "country": "United Kingdom" },
  { "latitude": "-41.52", "longitude": "173.87", "name": "Woodbourne Airport", "city": "Blenheim", "country": "New Zealand" },
  { "latitude": "15.7636", "longitude": "-84.551", "name": "Brus Laguna Airport", "city": "Brus Laguna", "country": "Honduras" },
  { "latitude": "19.9817", "longitude": "42.6267", "name": "Bisha Airport", "city": "Bisha", "country": "Saudi Arabia" },
  { "latitude": "-38.7261", "longitude": "-62.1539", "name": "Bahia Blanca Cte Espora Naval Air Base", "city": "Punta Alta", "country": "Argentina" },
  { "latitude": "23.2875", "longitude": "69.6706", "name": "Bhuj Airport", "city": "Bhuj", "country": "India" },
  { "latitude": "39.7948", "longitude": "64.4895", "name": "Bukhara Airport", "city": "Bukhara", "country": "Uzbekistan" },
  { "latitude": "33.5604", "longitude": "-86.7492", "name": "Birmingham International Airport", "city": "Birmingham", "country": "United States" },
  { "latitude": "23.2844", "longitude": "77.3383", "name": "Bairagarh Airport", "city": "Bhopal", "country": "India" },
  { "latitude": "-32.0031", "longitude": "141.466", "name": "Broken Hill Airport", "city": "Broken Hill", "country": "Australia" },
  { "latitude": "25.9173", "longitude": "50.6071", "name": "Bharatpur", "city": "Bharatpur", "country": "Nepal" },
  { "latitude": "-33.4121", "longitude": "149.657", "name": "Bathurst Airport", "city": "Bathurst", "country": "Australia" },
  { "latitude": "21.7536", "longitude": "72.1867", "name": "Bhavnagar Airport", "city": "Bhavnagar", "country": "India" },
  { "latitude": "29.3444", "longitude": "71.7125", "name": "Bahawalpur Airport", "city": "Bahawalpur", "country": "Pakistan" },
  { "latitude": "52.4531", "longitude": "-1.73847", "name": "Birmingham International Airport", "city": "Birmingham", "country": "United Kingdom" },
  { "latitude": "21.4833", "longitude": "109.083", "name": "Beihai", "city": "Beihai", "country": "China" },
  { "latitude": "42.5497", "longitude": "9.48341", "name": "Poretta Airport", "city": "Borgo", "country": "France" },
  { "latitude": "41.1696", "longitude": "-71.58", "name": "Block Island State Airport", "city": "Block Island", "country": "United States" },
  { "latitude": "11.5833", "longitude": "165.383", "name": "Enyu Airfield", "city": "Bikini Atoll", "country": "Marshall Islands" },
  { "latitude": "-1", "longitude": "136.117", "name": "Frans Kaisiepo Airport", "city": "Biak", "country": "Indonesia" },
  { "latitude": "45.8034", "longitude": "-108.537", "name": "Logan International Airport", "city": "Billings", "country": "United States" },
  { "latitude": "43.3025", "longitude": "-2.91112", "name": "Bilbao Airport", "city": "Loiu", "country": "Spain" },
  { "latitude": "43.472", "longitude": "-1.53137", "name": "Anglet Airport", "city": "Anglet", "country": "France" },
  { "latitude": "26.4814", "longitude": "87.2647", "name": "Biratnagar Airport", "city": "Biratnagur", "country": "Nepal" },
  { "latitude": "46.7745", "longitude": "-100.757", "name": "Bismarck Municipal Airport", "city": "Bismarck", "country": "United States" },
  { "latitude": "36.7133", "longitude": "5.0697", "name": "Soummam Airport", "city": "Bejaia", "country": "Algeria" },
  { "latitude": "37.4933", "longitude": "57.3007", "name": "Bojnord", "city": "Bojnord", "country": "Iran" },
  { "latitude": "70.6031", "longitude": "29.6948", "name": "Batsfjord Airport", "city": "Baasfjord", "country": "Norway" },
  { "latitude": "47.5065", "longitude": "-94.9338", "name": "Bemidji-Beltrami County Airport", "city": "Bemidji", "country": "United States" },
  { "latitude": "13.3372", "longitude": "-16.6544", "name": "Yundum International Airport", "city": "Yundum", "country": "Gambia" },
  { "latitude": "-3.3317", "longitude": "29.3208", "name": "Bujumbura Airport", "city": "Bujumbura", "country": "Burundi" },
  { "latitude": "11.5564", "longitude": "37.3687", "name": "Ethiopia", "city": "Bahar Dar", "country": "Ethiopia" },
  { "latitude": "37.0413", "longitude": "27.4362", "name": "Milas Airport", "city": "Bodrum", "country": "Turkey" },
  { "latitude": "-8.78333", "longitude": "120.983", "name": "Bajawa Airport", "city": "Ende", "country": "Indonesia" },
  { "latitude": "20.9903", "longitude": "-101.478", "name": "Silao Airport", "city": "Silao", "country": "Mexico" },
  { "latitude": "38.8939", "longitude": "-6.81921", "name": "Talavera la Real Airport", "city": "Badajoz", "country": "Spain" },
  { "latitude": "55.5516", "longitude": "37.9763", "name": "Bykovo Airport", "city": "Lyubertsy", "country": "Russia" },
  { "latitude": "65.9833", "longitude": "-161.167", "name": "Buckland Airport", "city": "Buckland", "country": "United States" },
  { "latitude": "5.9386", "longitude": "116.049", "name": "Kota Kinabalu Airport", "city": "Kota Kinabalu", "country": "Malaysia" },
  { "latitude": "13.9144", "longitude": "100.608", "name": "Bangkok International Airport", "city": "Lak Si", "country": "Thailand" },
  { "latitude": "3.94515", "longitude": "114.402", "name": "Malaysia", "city": "Bakalalan", "country": "Malaysia" },
  { "latitude": "12.5361", "longitude": "-7.9486", "name": "Bamako Senou Airport", "city": "Kalaban", "country": "Mali" },
  { "latitude": "-24.4292", "longitude": "145.429", "name": "Blackall Aerodrome", "city": "Mount Enniskillen", "country": "Australia" },
  { "latitude": "-3.8633", "longitude": "102.339", "name": "Padangkemiling Airport", "city": "Bengkulu", "country": "Indonesia" },
  { "latitude": "37.7849", "longitude": "-81.1174", "name": "Raleigh County Memorial Airport", "city": "Beaver", "country": "United States" },
  { "latitude": "-2.3014", "longitude": "28.8139", "name": "Bukavu Kavumu Airport", "city": "Bukavu", "country": "Congo" },
  { "latitude": "10.1103", "longitude": "-64.6872", "name": "Jose Antonio Anzoategui Airport", "city": "Pariagu\u00e1n", "country": "Venezuela" },
  { "latitude": "60.4297", "longitude": "15.5081", "name": "Dala Airport", "city": "Borlange", "country": "Sweden" },
  { "latitude": "48.7955", "longitude": "-122.532", "name": "Bellingham International Airport", "city": "Bellingham", "country": "United States" },
  { "latitude": "35.5572", "longitude": "6.17229", "name": "Algeria", "city": "Batna", "country": "Algeria" },
  { "latitude": "53.7756", "longitude": "-3.04118", "name": "Blackpool Airport", "city": "Blackpool", "country": "United Kingdom" },
  { "latitude": "55.742", "longitude": "9.15354", "name": "Billund Airport", "city": "Billund", "country": "Denmark" },
  { "latitude": "44.5345", "longitude": "11.2903", "name": "Bologna Airport", "city": "Bologna", "country": "Italy" },
  { "latitude": "12.9526", "longitude": "77.6656", "name": "HAL Bangalore International Airport", "city": "Bangalore", "country": "India" },
  { "latitude": "-23.6012", "longitude": "148.805", "name": "Blackwater Aerodrome", "city": "Baralaba", "country": "Australia" },
  { "latitude": "-15.6764", "longitude": "34.9714", "name": "Chileka International Airport", "city": "Lunzu", "country": "Malawi" },
  { "latitude": "59.3562", "longitude": "17.9378", "name": "Bromma Airport", "city": "Bromma", "country": "Sweden" },
  { "latitude": "-17.9464", "longitude": "122.233", "name": "Broome International Airport", "city": "Broome", "country": "Australia" },
  { "latitude": "40.4841", "longitude": "-88.9134", "name": "Bloomington Normal Airport", "city": "Bloomington", "country": "United States" },
  { "latitude": "53.5797", "longitude": "6.71294", "name": "Borkum Airport", "city": "Borkum", "country": "Germany" },
  { "latitude": "24.2739", "longitude": "97.2517", "name": "Bhamo Airport", "city": "Bhamo", "country": "Myanmar" },
  { "latitude": "-8.5444", "longitude": "118.682", "name": "Mohammad Salahuddin Airport", "city": "Raba", "country": "Indonesia" },
  { "latitude": "12.6667", "longitude": "108.05", "name": "Ban Me Thaut", "city": "Banmethuot", "country": "Vietnam" },
  { "latitude": "28.0269", "longitude": "1.65284", "name": "Algeria", "city": "Bordj Badji Mokhtar", "country": "Algeria" },
  { "latitude": "-19.75", "longitude": "163.667", "name": "Belep Island", "city": "Belep Island", "country": "New Caledonia" },
  { "latitude": "36.1342", "longitude": "-86.6682", "name": "Nashville International Airport", "city": "Nashville", "country": "United States" },
  { "latitude": "27.225", "longitude": "56.3783", "name": "Bandar Abbass International Airport", "city": "Bandar Abbas", "country": "Iran" },
  { "latitude": "-27.3589", "longitude": "153.122", "name": "Brisbane International Airport", "city": "Brisbane", "country": "Australia" },
  { "latitude": "6.3161", "longitude": "5.6", "name": "Benin Airport", "city": "Benin City", "country": "Nigeria" },
  { "latitude": "50.7667", "longitude": "7.16449", "name": "Hangelar", "city": "Bonn", "country": "Germany" },
  { "latitude": "-28.8342", "longitude": "153.555", "name": "Ballina Airport", "city": "Ballina", "country": "Australia" },
  { "latitude": "65.462", "longitude": "12.2161", "name": "Bronnoy Airport", "city": "Bronnoysund", "country": "Norway" },
  { "latitude": "8.6211", "longitude": "-70.2181", "name": "Barinas Airport", "city": "Barinas", "country": "Venezuela" },
  { "latitude": "44.9403", "longitude": "17.2992", "name": "Banja Luka Airport", "city": "Banja Luka", "country": "Bosnia and Herzegovina" },
  { "latitude": "-11.2961", "longitude": "159.801", "name": "Bellongitudea Airport", "city": "Bellongitudea", "country": "Solomon Islands" },
  { "latitude": "-16.45", "longitude": "-151.767", "name": "Motu-Mute Airport", "city": "Papeete", "country": "French Polynesia" },
  { "latitude": "9.34", "longitude": "-82.2514", "name": "Bocas del Toro Airport", "city": "Bocas del Toro", "country": "Panama" },
  { "latitude": "44.8291", "longitude": "-0.70278", "name": "Bordeaux Airport", "city": "Merignac", "country": "France" },
  { "latitude": "4.69895", "longitude": "-74.1435", "name": "Eldorado International Airport", "city": "Fontib\u00f3n", "country": "Colombia" },
  { "latitude": "50.7797", "longitude": "-1.83424", "name": "Bournemouth International Airport", "city": "Christchurch", "country": "United Kingdom" },
  { "latitude": "43.5709", "longitude": "-116.222", "name": "Boise Air Terminal", "city": "Boise", "country": "United States" },
  { "latitude": "42.5667", "longitude": "27.5", "name": "Bourgas Airport", "city": "Burgas", "country": "Bulgaria" },
  { "latitude": "19.0932", "longitude": "72.8654", "name": "Chhatrapati Shivaji International Airport", "city": "Mumbai", "country": "India" },
  { "latitude": "12.1392", "longitude": "-68.2697", "name": "Flamingo Airport", "city": "Kralendijk", "country": "Netherlands Antilles" },
  { "latitude": "67.2709", "longitude": "14.3653", "name": "Bodo Airport", "city": "Bodo", "country": "Norway" },
  { "latitude": "42.3717", "longitude": "-71.0281", "name": "Gen E L Logan International Airport", "city": "Boston", "country": "United States" },
  { "latitude": "27.9493", "longitude": "-81.7818", "name": "Bartow Municipal Airport", "city": "Bartow", "country": "United States" },
  { "latitude": "11.1636", "longitude": "-4.3264", "name": "Bobo Dioulasso Airport", "city": "Bobo-Dioulasso", "country": "Burkina Faso" },
  { "latitude": "-1.2681", "longitude": "116.897", "name": "Sepinggan Airport", "city": "Balikpapan", "country": "Indonesia" },
  { "latitude": "-16.4406", "longitude": "-39.0833", "name": "Porto Seguro Airport", "city": "Porto Seguro", "country": "Brazil" },
  { "latitude": "29.9551", "longitude": "-94.0185", "name": "Jefferson County Airport", "city": "Beaumont", "country": "United States" },
  { "latitude": "31.1442", "longitude": "97.174", "name": "Bangda Airport", "city": "Qamdo", "country": "China" },
  { "latitude": "-16.7431", "longitude": "44.4803", "name": "Besalampy Airport", "city": "Besalampy", "country": "Madagascar" },
  { "latitude": "31.2525", "longitude": "-81.4703", "name": "Glynco Jetport Airport", "city": "Brunswick", "country": "United States" },
  { "latitude": "-22.9122", "longitude": "139.897", "name": "Boulia Aerodrome", "city": "Boulia", "country": "Australia" },
  { "latitude": "18.496", "longitude": "-67.1357", "name": "Rafael Hernandez Airport", "city": "Aguadilla", "country": "United States" },
  { "latitude": "50.4243", "longitude": "127.409", "name": "Blagoveshchensk Northwest Airport", "city": "Blagoveshchensk", "country": "Russia" },
  { "latitude": "-12.0792", "longitude": "-45.01", "name": "Barreiras Airport", "city": "Barreiras", "country": "Brazil" },
  { "latitude": "-41.1511", "longitude": "-71.1581", "name": "San Carlos de Bariloche Airport", "city": "San Carlos DeBariloche", "country": "Argentina" },
  { "latitude": "46.3909", "longitude": "-94.1413", "name": "Brainerd-Crow Wing County Regional Airport", "city": "Brainerd", "country": "United States" },
  { "latitude": "53.0523", "longitude": "8.78533", "name": "Bremen Airport", "city": "Bremen", "country": "Germany" },
  { "latitude": "41.1376", "longitude": "16.7674", "name": "Palese Macchie Airport", "city": "Bari", "country": "Italy" },
  { "latitude": "-30.0403", "longitude": "145.953", "name": "Bourke Airport", "city": "Bourke", "country": "Australia" },
  { "latitude": "40.7816", "longitude": "-91.1197", "name": "Burlington Municipal Airport", "city": "Burlington", "country": "United States" },
  { "latitude": "10.0453", "longitude": "-69.3561", "name": "Barquisimeto Airport", "city": "Barquisimeto", "country": "Venezuela" },
  { "latitude": "46.9124", "longitude": "7.49929", "name": "Bern Belp Airport", "city": "Belp", "country": "Switzerland" },
  { "latitude": "25.9064", "longitude": "-97.4321", "name": "Brownsville-South Padre Island International Air", "city": "Brownsville", "country": "United States" },
  { "latitude": "49.1535", "longitude": "16.6908", "name": "Turany Airport", "city": "Brno", "country": "Czech Republic" },
  { "latitude": "57.0251", "longitude": "-7.44967", "name": "North Bay Airport", "city": "Barra", "country": "United Kingdom" },
  { "latitude": "51.3848", "longitude": "-2.70526", "name": "Bristol International Airport", "city": "Bristol", "country": "United Kingdom" },
  { "latitude": "50.899", "longitude": "4.4859", "name": "Brussels Airport", "city": "Bruxelles", "country": "Belgium" },
  { "latitude": "53.5537", "longitude": "8.78359", "name": "Bremerhaven Airport", "city": "Bad Bederkesa", "country": "Germany" },
  { "latitude": "71.2892", "longitude": "-156.772", "name": "Wiley Post Will Rogers Memorial Airport", "city": "Barrow", "country": "United States" },
  { "latitude": "11.2775", "longitude": "49.1814", "name": "Somalia", "city": "Bossaso", "country": "Somalia" },
  { "latitude": "-15.8622", "longitude": "-47.9122", "name": "Juscelino Kubitschek International Airport", "city": "Lago Sul", "country": "Brazil" },
  { "latitude": "6.1786", "longitude": "-77.3956", "name": "Jose Celestino Mutis Airport", "city": "Bah\u00eda Solano", "country": "Colombia" },
  { "latitude": "25.0604", "longitude": "99.1639", "name": "Baoshan Airport", "city": "Baoshan", "country": "China" },
  { "latitude": "1.9046", "longitude": "9.8032", "name": "Bata Airport", "city": "Bata", "country": "Equatorial Guinea" },
  { "latitude": "34.7933", "longitude": "5.74", "name": "Biskra Airport", "city": "Biskra", "country": "Algeria" },
  { "latitude": "47.5998", "longitude": "7.532", "name": "Euroairport Basel-Mulhouse-Freiburg", "city": "St-Ludwig", "country": "France" },
  { "latitude": "20.4531", "longitude": "121.978", "name": "Basco Airport", "city": "Basco", "country": "Philippines" },
  { "latitude": "45.4264", "longitude": "5.14384", "name": "Bassein", "city": "Bassein", "country": "Myanmar" },
  { "latitude": "1.1306", "longitude": "104.134", "name": "Hang Nadim Airport", "city": "Batam", "country": "Indonesia" },
  { "latitude": "70.1478", "longitude": "-143.579", "name": "Barter Island Airport", "city": "Kaktovik", "country": "United States" },
  { "latitude": "5.5197", "longitude": "95.4181", "name": "Blangbintang Airport", "city": "Banda Aceh", "country": "Indonesia" },
  { "latitude": "56.1667", "longitude": "102.067", "name": "Bratsk", "city": "Bratsk", "country": "Russia" },
  { "latitude": "42.3046", "longitude": "-85.2448", "name": "W K Kellogg Airport", "city": "Battle Creek", "country": "United States" },
  { "latitude": "45.9544", "longitude": "-112.503", "name": "Bert Mooney Airport", "city": "Butte", "country": "United States" },
  { "latitude": "30.533", "longitude": "-91.1567", "name": "Baton Rouge Metropolitan Airport", "city": "Baton Rouge", "country": "United States" },
  { "latitude": "48.2063", "longitude": "17.2055", "name": "Bratislava Airport", "city": "Bratislava", "country": "Slovakia" },
  { "latitude": "66.9134", "longitude": "-151.551", "name": "Bettles Airport", "city": "Bettles", "country": "United States" },
  { "latitude": "3.1728", "longitude": "113.043", "name": "Bintulu Airport", "city": "Bintulu", "country": "Malaysia" },
  { "latitude": "44.4688", "longitude": "-73.1552", "name": "Burlington International Airport", "city": "South Burlington", "country": "United States" },
  { "latitude": "-5.42232", "longitude": "154.673", "name": "Buka", "city": "Buka", "country": "Papua New Guinea" },
  { "latitude": "-17.7484", "longitude": "139.532", "name": "Burketown Aerodrome", "city": "Burketown", "country": "Australia" },
  { "latitude": "47.4453", "longitude": "19.2195", "name": "Ferihegy Airport", "city": "Budapest", "country": "Hungary" },
  { "latitude": "42.9309", "longitude": "-78.738", "name": "Greater Buffalo International Airport", "city": "Buffalo", "country": "United States" },
  { "latitude": "33.9116", "longitude": "-102.638", "name": "Bulolo", "city": "Bulolo", "country": "Papua New Guinea" },
  { "latitude": "3.8183", "longitude": "-76.9931", "name": "Buenaventura Airport", "city": "Buenaventura", "country": "Colombia" },
  { "latitude": "65.8514", "longitude": "12.344", "name": "Burao", "city": "Burao", "country": "Somalia" },
  { "latitude": "-20.0169", "longitude": "28.6181", "name": "Bulawayo Airport", "city": "Bulawayo", "country": "Zimbabwe" },
  { "latitude": "34.1963", "longitude": "-118.352", "name": "Burbank Glendale Pasadena Airport", "city": "Burbank", "country": "United States" },
  { "latitude": "50.0662", "longitude": "2.96519", "name": "Batumi", "city": "Batumi", "country": "Georgia" },
  { "latitude": "1.5717", "longitude": "30.2128", "name": "Bunia Airport", "city": "Bunia", "country": "Congo" },
  { "latitude": "28.9494", "longitude": "50.8311", "name": "Bushehr Airport", "city": "Bandar-e Bushehr", "country": "Iran" },
  { "latitude": "2.8417", "longitude": "-60.6917", "name": "Boa Vista International Airport", "city": "Boa Vista", "country": "Brazil" },
  { "latitude": "16.0961", "longitude": "-22.8172", "name": "Boa Vista Airport", "city": "Boa Vista", "country": "Cape Verde" },
  { "latitude": "70.8702", "longitude": "29.0294", "name": "Berlevag Airport", "city": "Berlevaag", "country": "Norway" },
  { "latitude": "-25.8971", "longitude": "139.349", "name": "Birdsville Airport", "city": "Birdsville", "country": "Australia" },
  { "latitude": "27.5042", "longitude": "83.42", "name": "Bhairawa Airport", "city": "Bhairawa", "country": "Nepal" },
  { "latitude": "54.1284", "longitude": "-3.26249", "name": "Walney Island Airport", "city": "Barrow in Furness", "country": "United Kingdom" },
  { "latitude": "39.1841", "longitude": "-76.6745", "name": "Baltimore-Washington International Thurgood Mars", "city": "Baltimore", "country": "United States" },
  { "latitude": "43.2619", "longitude": "16.655", "name": "Bol", "city": "Bol", "country": "Croatia" },
  { "latitude": "4.9458", "longitude": "114.924", "name": "Brunei International Airport", "city": "Bandar Seri Begawan", "country": "Brunei" },
  { "latitude": "-40.9935", "longitude": "145.725", "name": "Burnie Wynyard Airport", "city": "Doctors Rocks", "country": "Australia" },
  { "latitude": "22.4922", "longitude": "-79.9408", "name": "Santa Clara Airport", "city": "Santa Clara", "country": "Cuba" },
  { "latitude": "8.9528", "longitude": "125.476", "name": "Butuan Airport", "city": "Buenavista", "country": "Philippines" },
  { "latitude": "20.3972", "longitude": "-76.6192", "name": "Bayamo Airport", "city": "Bayamo", "country": "Cuba" },
  { "latitude": "17.5386", "longitude": "-88.3042", "name": "Philip S W Goldson International Airport", "city": "Hattieville", "country": "Belize" },
  { "latitude": "53.0918", "longitude": "17.9821", "name": "Szwederowo Airport", "city": "Bia\u0142e B\u0142ota", "country": "Poland" },
  { "latitude": "53.2667", "longitude": "34.3333", "name": "Briansk", "city": "Briansk", "country": "Russian Federation" },
  { "latitude": "45.7722", "longitude": "-111.157", "name": "Gallatitudein Field Airport", "city": "Bozeman", "country": "United States" },
  { "latitude": "46.4621", "longitude": "11.3282", "name": "Bolzano Airport", "city": "Botzen", "country": "Italy" },
  { "latitude": "43.3229", "longitude": "3.35466", "name": "Vias Airport", "city": "Villeneuve", "country": "France" },
  { "latitude": "-4.2558", "longitude": "15.2497", "name": "Brazzaville Maya Maya Airport", "city": "Brazzaville", "country": "Congo" },
  { "latitude": "-5.59", "longitude": "12.1886", "name": "Cabinda Airport", "city": "Cabinda", "country": "Angola" },
  { "latitude": "-25.0017", "longitude": "-53.5014", "name": "Cascavel Airport", "city": "Cascavel", "country": "Brazil" },
  { "latitude": "33.9468", "longitude": "-81.1241", "name": "Columbia Metropolitan Airport", "city": "West Columbia", "country": "United States" },
  { "latitude": "39.2527", "longitude": "9.05813", "name": "Elmas Airport", "city": "Sardara", "country": "Italy" },
  { "latitude": "9.17667", "longitude": "105.151", "name": "Camo", "city": "Ca Mau", "country": "Vietnam" },
  { "latitude": "30.1206", "longitude": "31.4078", "name": "Cairo International Airport", "city": "Cairo", "country": "Egypt" },
  { "latitude": "40.9149", "longitude": "-81.4309", "name": "Akron Canton Regional Airport", "city": "Canton", "country": "United States" },
  { "latitude": "55.4388", "longitude": "-5.69997", "name": "Campbeltown Airport", "city": "Campbeltown", "country": "United Kingdom" },
  { "latitude": "23.3925", "longitude": "113.299", "name": "Baiyun Airport", "city": "Guangzhou", "country": "China" },
  { "latitude": "19.7328", "longitude": "-72.195", "name": "Cap Haitien Airport", "city": "Cap-Ha\u00eftien", "country": "Haiti" },
  { "latitude": "54.9375", "longitude": "-2.8106", "name": "Carlisle Airport", "city": "Carlisle", "country": "United Kingdom" },
  { "latitude": "4.93333", "longitude": "-52.3333", "name": "Rochambeau", "city": "Cayenne", "country": "French Guiana" },
  { "latitude": "-31.5334", "longitude": "145.797", "name": "Cobar Airport", "city": "Canbelego", "country": "Australia" },
  { "latitude": "-17.4161", "longitude": "-66.1744", "name": "Jorge Wilsterman Airport", "city": "Cochabamba", "country": "Bolivia" },
  { "latitude": "52.2069", "longitude": "0.17355", "name": "Cambridge Airport", "city": "Cambridge", "country": "United Kingdom" },
  { "latitude": "31.6583", "longitude": "-2.2614", "name": "Bechar Airport", "city": "Bechar", "country": "Algeria" },
  { "latitude": "7.165", "longitude": "124.208", "name": "Cotabato Airport", "city": "Sultan Kudarat", "country": "Philippines" },
  { "latitude": "4.9756", "longitude": "8.3481", "name": "Calabar Airport", "city": "Duke Town", "country": "Nigeria" },
  { "latitude": "-35.3069", "longitude": "149.195", "name": "Canberra International Airport", "city": "Canberra", "country": "Australia" },
  { "latitude": "-12.4827", "longitude": "13.4904", "name": "Angola", "city": "Catumbela", "country": "Angola" },
  { "latitude": "22.4817", "longitude": "-78.4813", "name": "Cuba", "city": "Cayo Coco", "country": "Cuba" },
  { "latitude": "11.1329", "longitude": "75.9536", "name": "Kozhikode Airport", "city": "Pallikkal", "country": "India" },
  { "latitude": "-12.1778", "longitude": "96.839", "name": "Cocos Airport", "city": "West Island", "country": "Cocos (Keeling) Islands" },
  { "latitude": "-28.7239", "longitude": "-49.4208", "name": "Criciuma Airport", "city": "Forquilhinha", "country": "Brazil" },
  { "latitude": "-36.7736", "longitude": "-73.06", "name": "Carriel Sur International Airport", "city": "Hualpencillo", "country": "Chile" },
  { "latitude": "10.6053", "longitude": "-66.9881", "name": "Simon Bolivar International Airport", "city": "Catia la Mar", "country": "Venezuela" },
  { "latitude": "22.6572", "longitude": "88.4506", "name": "Netaji Subhash Chandra Bose International Airpor", "city": "Kolkata", "country": "India" },
  { "latitude": "-16.6619", "longitude": "168.38", "name": "Vanuatu", "city": "Craig Cove", "country": "Vanuatu" },
  { "latitude": "25.4098", "longitude": "-77.8843", "name": "Chub Cay Airport", "city": "Chub Cay", "country": "Bahamas" },
  { "latitude": "55.2005", "longitude": "-162.705", "name": "Cold Bay Airport", "city": "Cold Bay", "country": "United States" },
  { "latitude": "37.6992", "longitude": "-113.092", "name": "Cedar City Municipal Airport", "city": "Cedar City", "country": "United States" },
  { "latitude": "49.0175", "longitude": "2.5564", "name": "Charles de Gaulle International Airport", "city": "Le Mesnil-Amelot", "country": "France" },
  { "latitude": "42.8284", "longitude": "-103.094", "name": "Chadron Municipal Airport", "city": "Chadron", "country": "United States" },
  { "latitude": "60.4924", "longitude": "-145.475", "name": "Merle K Mudhole Smith Airport", "city": "Cordova", "country": "United States" },
  { "latitude": "10.3596", "longitude": "123.837", "name": "Lahug Airport", "city": "Cebu", "country": "Philippines" },
  { "latitude": "41.7765", "longitude": "-124.237", "name": "Jack Mcnamara Field Airport", "city": "Crescent City", "country": "United States" },
  { "latitude": "-32.1264", "longitude": "133.701", "name": "Ceduna Airport", "city": "Ceduna", "country": "Australia" },
  { "latitude": "59.083", "longitude": "37.938", "name": "Cherepovets Airport", "city": "Cherepovets", "country": "Russia" },
  { "latitude": "53.1707", "longitude": "-2.98142", "name": "Hawarden Airport", "city": "Chester", "country": "United Kingdom" },
  { "latitude": "19.8864", "longitude": "99.8306", "name": "Chiang Rai Airport", "city": "Chiang Rai", "country": "Thailand" },
  { "latitude": "55.3104", "longitude": "61.4913", "name": "Chelyabinsk Balandino Airport", "city": "Zlatitudeoust", "country": "Russia" },
  { "latitude": "65.6121", "longitude": "-144.674", "name": "Central Airport", "city": "Circle", "country": "United States" },
  { "latitude": "27.3925", "longitude": "-109.832", "name": "Ciudad Obregon Airport", "city": "Ciudad Obreg\u00f3n", "country": "Mexico" },
  { "latitude": "37.3044", "longitude": "-108.63", "name": "Cortez-Montezuma County Airport", "city": "Cortez", "country": "United States" },
  { "latitude": "-26.7775", "longitude": "-51.0175", "name": "Cacador Airport", "city": "Ca\u00e7ador", "country": "Brazil" },
  { "latitude": "45.7896", "longitude": "3.16013", "name": "Aulnat Airport", "city": "Aulnat", "country": "France" },
  { "latitude": "36.2128", "longitude": "1.33167", "name": "Abou Bakr Belkaid", "city": "Chlef", "country": "Algeria" },
  { "latitude": "55.0416", "longitude": "-8.3436", "name": "Carrickfin Airport", "city": "Mullaghduff", "country": "Ireland" },
  { "latitude": "49.1825", "longitude": "-0.45906", "name": "Carpiquet Airport", "city": "Carpiquet", "country": "France" },
  { "latitude": "-30.3171", "longitude": "153.119", "name": "Coffs Harbour Airport", "city": "Coffs Harbour", "country": "Australia" },
  { "latitude": "39.6013", "longitude": "19.9136", "name": "Kerkira Airport", "city": "Corcyra", "country": "Greece" },
  { "latitude": "55.4592", "longitude": "-133.106", "name": "Craig Seaplane Base", "city": "Craig", "country": "United States" },
  { "latitude": "-15.6497", "longitude": "-56.1169", "name": "Marechal Rondon International Airport", "city": "Cuiaba", "country": "Brazil" },
  { "latitude": "28.9196", "longitude": "111.63", "name": "Changde Airport", "city": "Changde", "country": "China" },
  { "latitude": "-23.6285", "longitude": "-46.6589", "name": "Congonhas International Airport", "city": "Sao Paulo", "country": "Brazil" },
  { "latitude": "37.2272", "longitude": "-89.5637", "name": "Cape Girardeau Municipal Airport", "city": "Scott City", "country": "United States" },
  { "latitude": "-6.11964", "longitude": "106.656", "name": "Jakarta International Airport", "city": "Tangerang", "country": "Indonesia" },
  { "latitude": "9.173", "longitude": "124.725", "name": "Philippines", "city": "Camiguin", "country": "Philippines" },
  { "latitude": "50.8784", "longitude": "7.12293", "name": "Cologne Bonn Airport", "city": "Cologne", "country": "Germany" },
  { "latitude": "34.75", "longitude": "113.65", "name": "Zhengzhou Airport", "city": "Zhengzhou", "country": "China" },
  { "latitude": "22.2517", "longitude": "91.815", "name": "Chittagong Airport", "city": "Chittagong", "country": "Bangladesh" },
  { "latitude": "43.9069", "longitude": "125.207", "name": "Dafang Shen Airport", "city": "Changchun", "country": "China" },
  { "latitude": "-20.475", "longitude": "-54.6736", "name": "Campo Grande International Airport", "city": "Campo Grande", "country": "Brazil" },
  { "latitude": "8.4139", "longitude": "124.608", "name": "Cagayan de Oro Airport", "city": "Cagayan de Oro", "country": "Philippines" },
  { "latitude": "35.0373", "longitude": "-85.1966", "name": "Chattanooga Metropolitan Airport", "city": "Chattanooga", "country": "United States" },
  { "latitude": "-43.4859", "longitude": "172.534", "name": "Christchurch International Airport", "city": "Christchurch", "country": "New Zealand" },
  { "latitude": "38.14", "longitude": "-78.4487", "name": "Charlottesville Albemarle Airport", "city": "Earlysville", "country": "United States" },
  { "latitude": "35.5319", "longitude": "24.1489", "name": "Souda Airport", "city": "Canea", "country": "Greece" },
  { "latitude": "-37.9723", "longitude": "174.566", "name": "Karewa", "city": "Chatham Island", "country": "New Zealand" },
  { "latitude": "61.5769", "longitude": "-159.244", "name": "Chuathbaluk", "city": "Chuathbaluk", "country": "United States" },
  { "latitude": "-6.7", "longitude": "156.45", "name": "Choiseul Bay", "city": "Choiseul Bay", "country": "Solomon Islands" },
  { "latitude": "41.8004", "longitude": "12.5908", "name": "Ciampino Airport", "city": "Rome", "country": "Italy" },
  { "latitude": "39.7987", "longitude": "-121.854", "name": "Chico Municipal Airport", "city": "Chico", "country": "United States" },
  { "latitude": "41.8893", "longitude": "-91.7008", "name": "Cedar Rapids Municipal Airport", "city": "Cedar Rapids", "country": "United States" },
  { "latitude": "42.3333", "longitude": "119.008", "name": "Chifeng", "city": "Chifeng", "country": "China" },
  { "latitude": "36.1833", "longitude": "113.133", "name": "Changzhi", "city": "Changzhi", "country": "China" },
  { "latitude": "-11.0178", "longitude": "-68.759", "name": "E. Beltram Airport", "city": "Cobija", "country": "Bolivia" },
  { "latitude": "66.65", "longitude": "-143.75", "name": "Chalkyitsik Airport", "city": "Chalkyitsik", "country": "United States" },
  { "latitude": "46.2581", "longitude": "-84.4739", "name": "Chippewa County International Airport", "city": "Kincheloe", "country": "United States" },
  { "latitude": "12.7187", "longitude": "-61.3306", "name": "Canouan Airport", "city": "Canouan Island", "country": "Saint Vincent and the Grenadines" },
  { "latitude": "-6.7897", "longitude": "-79.8322", "name": "Cap J A Quinones Gonzales Airport", "city": "Chiclayo", "country": "Peru" },
  { "latitude": "-7.1322", "longitude": "-78.4889", "name": "Maj Gen Fap A R Iglesias Airport", "city": "Cajamarca", "country": "Peru" },
  { "latitude": "11.0233", "longitude": "77.0482", "name": "Peelamedu Airport", "city": "Coimbatore", "country": "India" },
  { "latitude": "-22.4944", "longitude": "-68.9017", "name": "El Loa Airport", "city": "Calama", "country": "Chile" },
  { "latitude": "35.8861", "longitude": "71.7944", "name": "Chitral Airport", "city": "Chitral", "country": "Pakistan" },
  { "latitude": "31.6361", "longitude": "-106.428", "name": "Ciudad Juarez International Airport", "city": "Ciudad Juarez", "country": "Mexico" },
  { "latitude": "33.5056", "longitude": "126.495", "name": "Cheju International Airport", "city": "Jeju-Si", "country": "South Korea" },
  { "latitude": "39.2967", "longitude": "-80.2314", "name": "Benedum Airport", "city": "Clarksburg", "country": "United States" },
  { "latitude": "61.8667", "longitude": "-158.133", "name": "Crooked Creek Airport", "city": "Aniak", "country": "United States" },
  { "latitude": "29.5833", "longitude": "106.5", "name": "Chongqing Jiangbei International", "city": "Chongqing", "country": "China" },
  { "latitude": "70.6416", "longitude": "147.933", "name": "Russia", "city": "Chokurdah", "country": "Russia" },
  { "latitude": "-6.1175", "longitude": "-50.0036", "name": "Carajas Airport", "city": "Carajas", "country": "Brazil" },
  { "latitude": "64.0833", "longitude": "-141.917", "name": "Chicken Airport", "city": "Tok", "country": "United States" },
  { "latitude": "9.5764", "longitude": "-13.6108", "name": "Conakry Airport", "city": "Conakry", "country": "Guinea" },
  { "latitude": "40.1553", "longitude": "26.4142", "name": "Abydus", "city": "Canakkale", "country": "Turkey" },
  { "latitude": "33.1255", "longitude": "-117.275", "name": "Mcclellan Palomar Airport", "city": "Carlsbad", "country": "United States" },
  { "latitude": "41.4115", "longitude": "-81.8339", "name": "Hopkins International Airport", "city": "Cleveland", "country": "United States" },
  { "latitude": "46.7902", "longitude": "23.6984", "name": "Someseni Airport", "city": "Clausemburgo", "country": "Romania" },
  { "latitude": "30.5938", "longitude": "-96.3685", "name": "Easterwood Field Airport", "city": "College Station", "country": "United States" },
  { "latitude": "48.1155", "longitude": "-123.491", "name": "William R Fairchild International Airport", "city": "Port Angeles", "country": "United States" },
  { "latitude": "3.5461", "longitude": "-76.385", "name": "Alfonso Bonilla Aragon International Airport", "city": "Obando", "country": "Colombia" },
  { "latitude": "58.8517", "longitude": "-158.51", "name": "Clarks Point Airport", "city": "Clarks Point", "country": "United States" },
  { "latitude": "19.2733", "longitude": "-103.577", "name": "Colima Airport", "city": "Cuauht\u00e9moc", "country": "Mexico" },
  { "latitude": "35.2226", "longitude": "-80.946", "name": "Douglas International Airport", "city": "Charlotte", "country": "United States" },
  { "latitude": "42.5295", "longitude": "8.79677", "name": "Ste Catherine Airport", "city": "Calenzana", "country": "France" },
  { "latitude": "-28.0333", "longitude": "145.617", "name": "Cunnamulla", "city": "Cunnamulla", "country": "Australia" },
  { "latitude": "7.1806", "longitude": "79.8856", "name": "Katunayake International Airport", "city": "Gampaha", "country": "Sri Lanka" },
  { "latitude": "18.6522", "longitude": "-91.8011", "name": "Ciudad del Carmen Airport", "city": "Carmen Olor\u00f3n", "country": "Mexico" },
  { "latitude": "45.6375", "longitude": "5.88291", "name": "Aix les Bains Airport", "city": "La Motte", "country": "France" },
  { "latitude": "-19.0055", "longitude": "-57.7055", "name": "Corumba International Airport", "city": "Corumba", "country": "Brazil" },
  { "latitude": "39.9974", "longitude": "-82.8877", "name": "Port Columbus International Airport", "city": "Columbus", "country": "United States" },
  { "latitude": "40.0367", "longitude": "-88.2638", "name": "University of Illinois-Willard Airport", "city": "Savoy", "country": "United States" },
  { "latitude": "33.365", "longitude": "-7.5817", "name": "Mohamed V Airport", "city": "Casablanca", "country": "Morocco" },
  { "latitude": "-6.0283", "longitude": "44.9717", "name": "Chimbu Airport", "city": "Kundiawa", "country": "Papua New Guinea" },
  { "latitude": "21.4186", "longitude": "-77.8458", "name": "Ignacio Agramonte Airport", "city": "Camag\u00fcey", "country": "Cuba" },
  { "latitude": "47.1689", "longitude": "-88.4942", "name": "Houghton County Memorial Airport", "city": "Hancock", "country": "United States" },
  { "latitude": "-30.9742", "longitude": "148.381", "name": "Coonamble Airport", "city": "Coonamble", "country": "Australia" },
  { "latitude": "-10.0505", "longitude": "143.069", "name": "Australia", "city": "Coconut Island", "country": "Australia" },
  { "latitude": "44.3581", "longitude": "28.4896", "name": "Constanta Mihail Kogalniceanu Airport", "city": "Kustenje", "country": "Romania" },
  { "latitude": "-19.6242", "longitude": "-43.9717", "name": "Tancredo Neves International Airport", "city": "Confins", "country": "Brazil" },
  { "latitude": "-20.6657", "longitude": "140.508", "name": "Clongitudecurry Aerodrome", "city": "Clongitudecurry", "country": "Australia" },
  { "latitude": "32.3458", "longitude": "-104.251", "name": "Cavern City Air Terminal Airport", "city": "Carlsbad", "country": "United States" },
  { "latitude": "70.7431", "longitude": "-22.6583", "name": "Neerlerit Inaat", "city": "Neerlerit Inaat", "country": "Greenland" },
  { "latitude": "-27.4497", "longitude": "-58.7622", "name": "Corrientes Airport", "city": "Corrientes", "country": "Argentina" },
  { "latitude": "-16.8831", "longitude": "145.753", "name": "Cairns International Airport", "city": "Cairns", "country": "Australia" },
  { "latitude": "18.7714", "longitude": "98.9628", "name": "Chiang Mai International Airport", "city": "Chiang Mai", "country": "Thailand" },
  { "latitude": "38.7609", "longitude": "-109.742", "name": "Canyonlands Field Airport", "city": "Thompson", "country": "United States" },
  { "latitude": "44.5134", "longitude": "-109.031", "name": "Yellowstone Regional Airport", "city": "Cody\/Yellowstone", "country": "United States" },
  { "latitude": "9.93997", "longitude": "76.2748", "name": "Kochi Airport", "city": "Kochi", "country": "India" },
  { "latitude": "56.6167", "longitude": "-6.61667", "name": "Coll Island Airport", "city": "Isle of coll", "country": "United Kingdom" },
  { "latitude": "6.3542", "longitude": "2.3856", "name": "Cotonou Cadjehon Airport", "city": "Cotonou", "country": "Benin" },
  { "latitude": "48.1366", "longitude": "114.65", "name": "Choybalsan Northeast Airport", "city": "Choibalsan", "country": "Mongolia" },
  { "latitude": "-31.3131", "longitude": "-64.1994", "name": "Ingeniero Ambrosio L.V. Taravella International ", "city": "Cordoba", "country": "Argentina" },
  { "latitude": "38.7829", "longitude": "-104.697", "name": "City of Colorado Springs Municipal Airport", "city": "Colorado Springs", "country": "United States" },
  { "latitude": "38.8174", "longitude": "-92.2218", "name": "Columbia Regional Airport", "city": "Columbia", "country": "United States" },
  { "latitude": "-40.0758", "longitude": "-71.1392", "name": "Chapelco Airport", "city": "San Martin DeLos Andes", "country": "Argentina" },
  { "latitude": "-29.0378", "longitude": "134.724", "name": "Coober Pedy Aerodrome", "city": "Coober Pedy", "country": "Australia" },
  { "latitude": "19.8158", "longitude": "-90.5008", "name": "Ignacio Alberto Acuna Ongay Airport", "city": "Campeche", "country": "Mexico" },
  { "latitude": "55.6205", "longitude": "12.6495", "name": "Copenhagen Airport", "city": "Kastrup", "country": "Denmark" },
  { "latitude": "-27.2933", "longitude": "-70.4122", "name": "Chamonate Airport", "city": "Copiap\u00f3", "country": "Chile" },
  { "latitude": "-23", "longitude": "-47.1333", "name": "Campinas International Airport", "city": "Campinas", "country": "Brazil" },
  { "latitude": "42.8966", "longitude": "-106.465", "name": "Natrona County International Airport", "city": "Casper", "country": "United States" },
  { "latitude": "-33.9647", "longitude": "18.6022", "name": "D F Malan Airport", "city": "Cape Town", "country": "South Africa" },
  { "latitude": "-7.2689", "longitude": "-35.8947", "name": "Presidente Joao Suassuna Airport", "city": "Campina Grande", "country": "Brazil" },
  { "latitude": "18.3204", "longitude": "-65.2929", "name": "Culebra Airport", "city": "Culebra", "country": "United States" },
  { "latitude": "32.2967", "longitude": "50.8417", "name": "Shahre-Kord", "city": "Shahre-Kord", "country": "Iran" },
  { "latitude": "44.3173", "longitude": "23.8447", "name": "Craiova Airport", "city": "Croiova", "country": "Romania" },
  { "latitude": "-45.7872", "longitude": "-67.4628", "name": "General Enrique Mosconi Airport", "city": "Comodoro Rivadavia", "country": "Argentina" },
  { "latitude": "22.7467", "longitude": "-74.18", "name": "Colongitudeel Hill Airport", "city": "Colongitudeel Hill", "country": "Bahamas" },
  { "latitude": "12.5044", "longitude": "124.635", "name": "Catarman Airport", "city": "Catarman", "country": "Philippines" },
  { "latitude": "27.7747", "longitude": "-97.5019", "name": "Corpus Christi International Airport", "city": "Corpus Christi", "country": "United States" },
  { "latitude": "38.3697", "longitude": "-81.5951", "name": "Yeager Airport", "city": "Charleston", "country": "United States" },
  { "latitude": "56.0603", "longitude": "-6.22418", "name": "Isle Of Colongitudesay", "city": "Isle Of Colongitudesay", "country": "United Kingdom" },
  { "latitude": "32.5184", "longitude": "-84.9401", "name": "Columbus Metropolitan Airport", "city": "Columbus", "country": "United States" },
  { "latitude": "65.05", "longitude": "35.6667", "name": "Solovky", "city": "Solovetsky", "country": "Russian Federation" },
  { "latitude": "12.3953", "longitude": "-16.7514", "name": "Cap Skiring Airport", "city": "Cap Skirring", "country": "Senegal" },
  { "latitude": "28.0711", "longitude": "112.958", "name": "Huanghua Airport", "city": "Changsha", "country": "China" },
  { "latitude": "56.1311", "longitude": "47.2882", "name": "Russia", "city": "Cheboksary", "country": "Russia" },
  { "latitude": "37.4696", "longitude": "15.0672", "name": "Catania Fontanarossa Airport", "city": "Catania", "country": "Italy" },
  { "latitude": "-28.5939", "longitude": "-65.7542", "name": "Catamarca Airport", "city": "San Isidro", "country": "Argentina" },
  { "latitude": "10.4481", "longitude": "-75.5106", "name": "Rafael Nunez Airport", "city": "La Boquilla", "country": "Colombia" },
  { "latitude": "-26.4135", "longitude": "146.263", "name": "Charleville Aerodrome", "city": "Charleville", "country": "Australia" },
  { "latitude": "18.5039", "longitude": "-88.3247", "name": "Chetumal International Airport", "city": "Chetumal", "country": "Mexico" },
  { "latitude": "42.7757", "longitude": "141.691", "name": "New Chitose Airport", "city": "Chitose-shi", "country": "Japan" },
  { "latitude": "30.5775", "longitude": "103.941", "name": "Chengdushuang Liu Airport", "city": "Chengdu", "country": "China" },
  { "latitude": "7.93", "longitude": "-72.5094", "name": "Camilo Daza Airport", "city": "C\u00facuta", "country": "Colombia" },
  { "latitude": "-2.8867", "longitude": "-78.9833", "name": "Mariscal Lamar Airport", "city": "Cuenca", "country": "Ecuador" },
  { "latitude": "44.5466", "longitude": "7.61998", "name": "Levaldigi Airport", "city": "Fossano", "country": "Italy" },
  { "latitude": "17.4956", "longitude": "-88.1816", "name": "Belize", "city": "Caye Caulker", "country": "Belize" },
  { "latitude": "24.7644", "longitude": "-107.474", "name": "Culiacan Airport", "city": "Culiacan", "country": "Mexico" },
  { "latitude": "10.4539", "longitude": "-64.1297", "name": "Antonio Jose de Sucre Airport", "city": "Cuman\u00e1", "country": "Venezuela" },
  { "latitude": "21.0406", "longitude": "-86.8744", "name": "Cancun Airport", "city": "Cancun", "country": "Mexico" },
  { "latitude": "10.6589", "longitude": "-63.2625", "name": "Gen Jose Francisco Bermudez Airport", "city": "El Pilar", "country": "Venezuela" },
  { "latitude": "12.188", "longitude": "-68.9634", "name": "Hato Airport", "city": "Curacao", "country": "Netherlands Antilles" },
  { "latitude": "28.7028", "longitude": "-105.964", "name": "General R F Villalobos International Airport", "city": "Chihuahua", "country": "Mexico" },
  { "latitude": "-13.5308", "longitude": "-71.9472", "name": "Velazco Astete Airport", "city": "San Sebasti\u00e1n", "country": "Peru" },
  { "latitude": "39.0571", "longitude": "-84.6625", "name": "Greater Cincinnati International Airport", "city": "Hebron", "country": "United States" },
  { "latitude": "23.7139", "longitude": "-98.9653", "name": "Ciudad Victoria Airport", "city": "G\u00fc\u00e9mez", "country": "Mexico" },
  { "latitude": "34.4271", "longitude": "-103.087", "name": "Clovis Municipal Airport", "city": "Texico", "country": "United States" },
  { "latitude": "-24.8801", "longitude": "113.669", "name": "Carnarvon Airport", "city": "Carnarvon", "country": "Australia" },
  { "latitude": "52.367", "longitude": "-1.4895", "name": "Coventry Airport", "city": "Coventry", "country": "United Kingdom" },
  { "latitude": "39.7", "longitude": "-31.1", "name": "Corvo Island Airport", "city": "Corvo", "country": "Portugal" },
  { "latitude": "44.7846", "longitude": "-89.6704", "name": "Central Wisconsin Airport", "city": "Mosinee", "country": "United States" },
  { "latitude": "-25.5275", "longitude": "-49.1731", "name": "Afonso Pena International Airport", "city": "Sao Jose dos Pinhais", "country": "Brazil" },
  { "latitude": "48.2526", "longitude": "25.976", "name": "Chernovtsy Airport", "city": "Chernivtsi", "country": "Ukraine" },
  { "latitude": "51.3998", "longitude": "-3.34475", "name": "Cardiff International Airport", "city": "Barry", "country": "United Kingdom" },
  { "latitude": "21.45", "longitude": "91.9681", "name": "Coxs Bazar Airport", "city": "Cox's Bazar", "country": "Bangladesh" },
  { "latitude": "49.5912", "longitude": "-125.848", "name": "Coal Harbour Airport", "city": "Vancouver", "country": "Canada" },
  { "latitude": "1.9849", "longitude": "-157.675", "name": "Christmas Island Airport", "city": "Christmas Island", "country": "Kiribati" },
  { "latitude": "-29.1961", "longitude": "-51.1906", "name": "Campo dos Bugres Airport", "city": "Caxias do Sul", "country": "Brazil" },
  { "latitude": "12.2333", "longitude": "109.2", "name": "Nha-Trang Airport", "city": "Nha Trang", "country": "Vietnam" },
  { "latitude": "19.689", "longitude": "-79.8848", "name": "Gerrard Smith Airport", "city": "Cayman Brac Is", "country": "Cayman Islands" },
  { "latitude": "23.4542", "longitude": "120.404", "name": "Chaiyi Airport", "city": "Chiayi City", "country": "Taiwan" },
  { "latitude": "21.6169", "longitude": "-81.5422", "name": "Cayo Largo del sur Airport", "city": "Cayo Largo Del Sur", "country": "Cuba" },
  { "latitude": "12.0722", "longitude": "124.544", "name": "Calbayog Airport", "city": "Calbayog", "country": "Philippines" },
  { "latitude": "41.1527", "longitude": "-104.819", "name": "Cheyenne Airport", "city": "Cheyenne", "country": "United States" },
  { "latitude": "10.8762", "longitude": "121.064", "name": "Cuyo", "city": "Cuyo", "country": "Philippines" },
  { "latitude": "68.75", "longitude": "161.35", "name": "Cherskiy", "city": "Cherskiy", "country": "Russian Federation" },
  { "latitude": "16.93", "longitude": "121.756", "name": "Cauayan Airport", "city": "Cauayan", "country": "Philippines" },
  { "latitude": "11.4158", "longitude": "-69.6819", "name": "Jose Leonardo Chirinos Airport", "city": "La Vela de Coro", "country": "Venezuela" },
  { "latitude": "18.3696", "longitude": "-88.4307", "name": "Corozal Airport", "city": "Corozal", "country": "Belize" },
  { "latitude": "36.2778", "longitude": "6.6247", "name": "Ain El Bey Airport", "city": "Constantine", "country": "Algeria" },
  { "latitude": "20.5242", "longitude": "-86.9264", "name": "Cozumel International Airport", "city": "San Miguel de Cozumel", "country": "Mexico" },
  { "latitude": "62.0833", "longitude": "-142.05", "name": "Chisana Airport", "city": "Gakona", "country": "United States" },
  { "latitude": "-7.5994", "longitude": "-72.7697", "name": "Cruzeiro do Sul International Airport", "city": "Cruzeiro Do Sul", "country": "Brazil" },
  { "latitude": "9.3375", "longitude": "-75.2828", "name": "Las Brujas Airport", "city": "Morroa", "country": "Colombia" },
  { "latitude": "31.7833", "longitude": "119.95", "name": "Changzhou Airport", "city": "Changzhou", "country": "China" },
  { "latitude": "29.1874", "longitude": "-81.0615", "name": "Daytona Beach International Airport", "city": "Daytona Beach", "country": "United States" },
  { "latitude": "23.8379", "longitude": "90.3948", "name": "Zia International Airport Dhaka", "city": "Dhaka", "country": "Bangladesh" },
  { "latitude": "16.05", "longitude": "108.2", "name": "Da Nang Airport", "city": "Tourane", "country": "Vietnam" },
  { "latitude": "32.8439", "longitude": "-96.8496", "name": "Dallas Love Field Airport", "city": "Dallas", "country": "United States" },
  { "latitude": "33.4139", "longitude": "36.5178", "name": "Damascus International Airport", "city": "Damascus", "country": "Syria" },
  { "latitude": "-6.8753", "longitude": "39.2019", "name": "Dar Es Salaam Airport", "city": "Dar es Salaam", "country": "Tanzania" },
  { "latitude": "-9.0878", "longitude": "143.195", "name": "Daru Airport", "city": "Daru", "country": "Papua New Guinea" },
  { "latitude": "31.1336", "longitude": "107.419", "name": "Daxian Airport", "city": "Daxian", "country": "China" },
  { "latitude": "39.8968", "longitude": "-84.2207", "name": "James M Cox Dayton International Airport", "city": "Dayton", "country": "United States" },
  { "latitude": "30.4419", "longitude": "69.3597", "name": "Pakistan", "city": "Dalbandin", "country": "Pakistan" },
  { "latitude": "-32.2183", "longitude": "148.574", "name": "Dubbo Airport", "city": "Dubbo", "country": "Australia" },
  { "latitude": "42.4047", "longitude": "-90.7037", "name": "Dubuque Regional Airport", "city": "Dubuque", "country": "United States" },
  { "latitude": "42.5631", "longitude": "18.2692", "name": "Dubrovnik Airport", "city": "Dubrovnik", "country": "Croatia" },
  { "latitude": "38.849", "longitude": "-77.0438", "name": "Washington National Airport", "city": "Arlington", "country": "United States" },
  { "latitude": "15.5333", "longitude": "-61.4", "name": "Cane Field Airport", "city": "Portsmouth", "country": "Dominica" },
  { "latitude": "43.5538", "longitude": "2.28923", "name": "Mazamet Airport", "city": "Labrugui\u00e8re", "country": "France" },
  { "latitude": "37.7573", "longitude": "-99.9697", "name": "Dodge City Regional Airport", "city": "Dodge City", "country": "United States" },
  { "latitude": "40.0242", "longitude": "124.283", "name": "Dandong Airport", "city": "Dandong", "country": "China" },
  { "latitude": "39.8335", "longitude": "-88.8773", "name": "Decatur Airport", "city": "Decatur", "country": "United States" },
  { "latitude": "30.3167", "longitude": "78.0333", "name": "Dehra Dun", "city": "Dehra Dun", "country": "India" },
  { "latitude": "32.4317", "longitude": "48.3989", "name": "Dezful Airport", "city": "Dezful", "country": "Iran" },
  { "latitude": "28.5603", "longitude": "77.1027", "name": "Indira Gandhi International Airport", "city": "New Delhi", "country": "India" },
  { "latitude": "39.8396", "longitude": "-104.672", "name": "Denver International Airport", "city": "Denver", "country": "United States" },
  { "latitude": "35.2822", "longitude": "40.1744", "name": "Deir Zzor Airport", "city": "Dayr az Zawr", "country": "Syria" },
  { "latitude": "32.9222", "longitude": "-97.0409", "name": "Fort Worth International Airport", "city": "Dallas", "country": "United States" },
  { "latitude": "16.9757", "longitude": "-88.235", "name": "Dangriga Airport", "city": "Dangriga", "country": "Belize" },
  { "latitude": "-32.5613", "longitude": "149.618", "name": "Mudgee Aerodrome", "city": "Apple Tree Flatitude", "country": "Australia" },
  { "latitude": "24.1283", "longitude": "-104.527", "name": "Durango Airport", "city": "Durango", "country": "Mexico" },
  { "latitude": "9.3358", "longitude": "123.301", "name": "Dumaguete Airport", "city": "Sibulan", "country": "Philippines" },
  { "latitude": "32.3", "longitude": "76.2667", "name": "Gaggal Airport", "city": "Dharamsala", "country": "India" },
  { "latitude": "31.3144", "longitude": "-85.4487", "name": "Dothan Airport", "city": "Dothan", "country": "United States" },
  { "latitude": "27.4839", "longitude": "95.0208", "name": "Mohanbari Airport", "city": "Dikhari", "country": "India" },
  { "latitude": "-12.3461", "longitude": "49.2925", "name": "Antsiranana Arrachart Airport", "city": "Antseranana", "country": "Madagascar" },
  { "latitude": "26.1256", "longitude": "109.308", "name": "Diqing", "city": "Diqing", "country": "China" },
  { "latitude": "46.8035", "longitude": "-102.802", "name": "Dickinson Municipal Airport", "city": "Dickinson", "country": "United States" },
  { "latitude": "-8.5533", "longitude": "125.526", "name": "Comoro", "city": "Dili", "country": "Indonesia" },
  { "latitude": "38.5686", "longitude": "-81.0596", "name": "Dien Bien", "city": "Dien Bien Phu", "country": "Vietnam" },
  { "latitude": "9.6244", "longitude": "41.8536", "name": "Aba Tenna Dejazmatch Yilma Airport", "city": "Dire Dawa", "country": "Ethiopia" },
  { "latitude": "-4.21667", "longitude": "12.5", "name": "Loubomo", "city": "Loubomo", "country": "Congo" },
  { "latitude": "20.7134", "longitude": "70.9217", "name": "Diu Airport", "city": "Diu", "country": "India" },
  { "latitude": "37.8947", "longitude": "40.2019", "name": "Diyarbakir Airport", "city": "Diyaribakir", "country": "Turkey" },
  { "latitude": "-1.6369", "longitude": "103.639", "name": "Sultan Taha Airport", "city": "Jambi", "country": "Indonesia" },
  { "latitude": "33.8764", "longitude": "10.7792", "name": "Zarzis Airport", "city": "Hawmat as Suq", "country": "Tunisia" },
  { "latitude": "24.2625", "longitude": "9.4428", "name": "Tiska Airport", "city": "Illizi", "country": "Algeria" },
  { "latitude": "-2.575", "longitude": "140.514", "name": "Sentani Airport", "city": "Jayapura", "country": "Indonesia" },
  { "latitude": "14.7417", "longitude": "-17.4931", "name": "Dakar Yoff Airport", "city": "Ngor", "country": "Senegal" },
  { "latitude": "4.0133", "longitude": "9.7097", "name": "Douala Airport", "city": "Douala", "country": "Cameroon" },
  { "latitude": "38.9617", "longitude": "121.543", "name": "Chou Shui Tzu Airport", "city": "Dalian", "country": "China" },
  { "latitude": "59.0445", "longitude": "-158.513", "name": "Dillingham Municipal Airport", "city": "Dillingham", "country": "United States" },
  { "latitude": "46.838", "longitude": "-92.1781", "name": "Duluth International Airport", "city": "Duluth", "country": "United States" },
  { "latitude": "11.7501", "longitude": "108.377", "name": "Lien Khuong Airport", "city": "Lam Dong", "country": "Vietnam" },
  { "latitude": "36.7125", "longitude": "28.7922", "name": "Dalaman Airport", "city": "Ortaca", "country": "Turkey" },
  { "latitude": "25.5667", "longitude": "100.233", "name": "Dali", "city": "Dali City", "country": "China" },
  { "latitude": "-16.6619", "longitude": "168.38", "name": "Vanuatu", "city": "Dillongitudes Bay", "country": "Vanuatu" },
  { "latitude": "43.9667", "longitude": "104.683", "name": "Dalanzadgad", "city": "Dalanzadgad", "country": "Mongolia" },
  { "latitude": "-18", "longitude": "138.833", "name": "Doomadgee", "city": "Doomadgee", "country": "Australia" },
  { "latitude": "55.4025", "longitude": "37.9136", "name": "Domodedovo Airport", "city": "Podol'sk", "country": "Russia" },
  { "latitude": "13.9181", "longitude": "100.59", "name": "Don Mueang", "city": "Don Muang", "country": "Thailand" },
  { "latitude": "26.4722", "longitude": "49.8058", "name": "King Fahd International Airport", "city": "Khuwaylidiyah", "country": "Saudi Arabia" },
  { "latitude": "25.8839", "longitude": "93.7736", "name": "Dimapur Airport", "city": "Dimapur", "country": "India" },
  { "latitude": "56.4538", "longitude": "-3.01347", "name": "Dundee Airport", "city": "Dundee", "country": "United Kingdom" },
  { "latitude": "40.2", "longitude": "94.6833", "name": "Dunhuang", "city": "Dunhuang", "country": "China" },
  { "latitude": "48.368", "longitude": "35.0942", "name": "Voloskoye Airport", "city": "Dnipropetrovs'k", "country": "Ukraine" },
  { "latitude": "48.589", "longitude": "-2.07757", "name": "Pleurtuit Airport", "city": "Pleurtuit", "country": "France" },
  { "latitude": "37.7667", "longitude": "29.1", "name": "Cardak Airport", "city": "Denizli", "country": "Turkey" },
  { "latitude": "19.1833", "longitude": "30.4833", "name": "Dongola Airport", "city": "Dongola", "country": "Sudan" },
  { "latitude": "25.2592", "longitude": "51.5658", "name": "Doha International Airport", "city": "Doha", "country": "Qatar" },
  { "latitude": "48.072", "longitude": "37.7426", "name": "Donetsk Airport", "city": "Donets'k", "country": "Ukraine" },
  { "latitude": "15.5431", "longitude": "-61.3092", "name": "Melville Hall Airport", "city": "Marigot", "country": "Dominica" },
  { "latitude": "29.217", "longitude": "82.7517", "name": "Nepal", "city": "Dolpa", "country": "Nepal" },
  { "latitude": "-22.1978", "longitude": "-54.9225", "name": "Dourados Airport", "city": "Dourados", "country": "Brazil" },
  { "latitude": "8.6043", "longitude": "123.348", "name": "Dipolog Airport", "city": "Polanco", "country": "Philippines" },
  { "latitude": "-41.1726", "longitude": "146.425", "name": "Devonport Airport", "city": "Devonport", "country": "Australia" },
  { "latitude": "-8.7486", "longitude": "115.165", "name": "Bali International Airport", "city": "Denpasar", "country": "Indonesia" },
  { "latitude": "66.0833", "longitude": "-162.767", "name": "Deering Airport", "city": "Deering", "country": "United States" },
  { "latitude": "37.1595", "longitude": "-107.751", "name": "Durango la Platitudea County Airport", "city": "Durango", "country": "United States" },
  { "latitude": "51.1688", "longitude": "13.7899", "name": "Ottendorf Okrilla Highway Strip Airport", "city": "Ottendorf-Okrilla", "country": "Germany" },
  { "latitude": "29.3702", "longitude": "-100.918", "name": "Del Rio International Airport", "city": "Del Rio", "country": "United States" },
  { "latitude": "-12.4159", "longitude": "130.874", "name": "Darwin International Airport", "city": "Darwin", "country": "Australia" },
  { "latitude": "53.3954", "longitude": "-1.38243", "name": "Sheffield Airport", "city": "Doncaster Sheffield", "country": "United Kingdom" },
  { "latitude": "41.5328", "longitude": "-93.6481", "name": "Des Moines International Airport", "city": "Des Moines", "country": "United States" },
  { "latitude": "39.8295", "longitude": "109.976", "name": "Dongsheng Airport", "city": "Dongsheng", "country": "China" },
  { "latitude": "51.5123", "longitude": "7.60451", "name": "Dortmund Airport", "city": "Dortmund", "country": "Germany" },
  { "latitude": "42.2327", "longitude": "-83.3412", "name": "Detroit Metropolitan Wayne County Airport", "city": "Detroit", "country": "United States" },
  { "latitude": "53.4272", "longitude": "-6.24418", "name": "Dublin Airport", "city": "Cloghran", "country": "Ireland" },
  { "latitude": "-45.9287", "longitude": "170.199", "name": "Dunedin Airport", "city": "Outram", "country": "New Zealand" },
  { "latitude": "-7.3958", "longitude": "20.8236", "name": "Dundo Airport", "city": "Dundo", "country": "Angola" },
  { "latitude": "41.1833", "longitude": "-78.8953", "name": "Du Bois Jefferson County Airport", "city": "Reynoldsville", "country": "United States" },
  { "latitude": "-29.9736", "longitude": "30.9472", "name": "Louis Botha Airport", "city": "Durban", "country": "South Africa" },
  { "latitude": "51.2794", "longitude": "6.76481", "name": "Dusseldorf International Airport", "city": "Dusseldorf", "country": "Germany" },
  { "latitude": "53.896", "longitude": "-166.535", "name": "Unalaska Airport", "city": "Unalaska", "country": "United States" },
  { "latitude": "48.108", "longitude": "-98.9037", "name": "Devils Lake Municipal Airport", "city": "Devils Lake", "country": "United States" },
  { "latitude": "7.1292", "longitude": "125.647", "name": "Francisco Bangoy International Airport", "city": "Davao City", "country": "Philippines" },
  { "latitude": "-16.1", "longitude": "45.3667", "name": "Soalala", "city": "Soalala", "country": "Madagascar" },
  { "latitude": "23.9176", "longitude": "45.0811", "name": "Saudi Arabia", "city": "Dawadmi", "country": "Saudi Arabia" },
  { "latitude": "25.2509", "longitude": "55.3629", "name": "Dubai International Airport", "city": "Dubai", "country": "United Arab Emirates" },
  { "latitude": "29.1333", "longitude": "110.483", "name": "Dayong", "city": "Dayong", "country": "China" },
  { "latitude": "64.7358", "longitude": "177.739", "name": "Anadyr-Ugolnyye Kopi Airport", "city": "Anadyr'", "country": "Russia" },
  { "latitude": "38.5785", "longitude": "68.7773", "name": "Tajikistan", "city": "Dushanbe", "country": "Tajikistan" },
  { "latitude": "-12.8", "longitude": "45.2833", "name": "Dzaoudzi Pamanzi Airport", "city": "Mamoudzou", "country": "Mayotte" },
  { "latitude": "47.7131", "longitude": "67.7065", "name": "Dzhezkazgan South Airport", "city": "Zhezqazghan", "country": "Kazakhstan" },
  { "latitude": "64.7667", "longitude": "-141.15", "name": "Eagle Airport", "city": "Tok", "country": "United States" },
  { "latitude": "-17.0686", "longitude": "168.381", "name": "Vanuatu", "city": "Emae", "country": "Vanuatu" },
  { "latitude": "9.08333", "longitude": "167.333", "name": "Elenak", "city": "Kwajalein Atoll", "country": "Marshall Islands" },
  { "latitude": "17.6117", "longitude": "44.4297", "name": "Nejran Airport", "city": "Najran", "country": "Saudi Arabia" },
  { "latitude": "40.7236", "longitude": "-99.0151", "name": "Kearney Municipal Airport", "city": "Kearney", "country": "United States" },
  { "latitude": "43.3557", "longitude": "-1.79208", "name": "San Sebastian Airport", "city": "Hondarribia", "country": "Spain" },
  { "latitude": "47.4048", "longitude": "-120.21", "name": "Pangborn Memorial Airport", "city": "East Wenatchee", "country": "United States" },
  { "latitude": "44.8625", "longitude": "-91.4826", "name": "Eau Claire County Airport", "city": "Eau Claire", "country": "United States" },
  { "latitude": "42.7629", "longitude": "10.2383", "name": "Marina de Campo Airport", "city": "Pianosa", "country": "Italy" },
  { "latitude": "0.0417", "longitude": "32.4381", "name": "Entebbe International Airport", "city": "Entebbe", "country": "Uganda" },
  { "latitude": "13.1597", "longitude": "30.2342", "name": "El Obeid Airport", "city": "Al Ubayyid", "country": "Sudan" },
  { "latitude": "55.5247", "longitude": "8.55388", "name": "Esbjerg Airport", "city": "Esbjerg", "country": "Denmark" },