[
  {
    "id":1,
    "name":"Goroka",
    "city":"Goroka",
    "country":"Papua New Guinea",
    "latitude":-6.081689,
    "longitude":145.391881
  },
  {
    "id":2,
    "name":"Madang",
    "city":"Madang",
    "country":"Papua New Guinea",
    "latitude":-5.207083,
    "longitude":145.7887
  },
  {
    "id":3,
    "name":"Mount Hagen",
    "city":"Mount Hagen",
    "country":"Papua New Guinea",
    "latitude":-5.826789,
    "longitude":144.295861
  },
  {
    "id":4,
    "name":"Nadzab",
    "city":"Nadzab",
    "country":"Papua New Guinea",
    "latitude":-6.569828,
    "longitude":146.726242
  },
  {
    "id":5,
    "name":"Port Moresby Jacksons Intl",
    "city":"Port Moresby",
    "country":"Papua New Guinea",
    "latitude":-9.443383,
    "longitude":147.22005
  },
  {
    "id":6,
    "name":"Wewak Intl",
    "city":"Wewak",
    "country":"Papua New Guinea",
    "latitude":-3.583828,
    "longitude":143.669186
  },
  {
    "id":7,
    "name":"Narsarsuaq",
    "city":"Narssarssuaq",
    "country":"Greenland",
    "latitude":61.160517,
    "longitude":-45.425978
  },
  {
    "id":8,
    "name":"Nuuk",
    "city":"Godthaab",
    "country":"Greenland",
    "latitude":64.190922,
    "longitude":-51.678064
  },
  {
    "id":9,
    "name":"Sondre Stromfjord",
    "city":"Sondrestrom",
    "country":"Greenland",
    "latitude":67.016969,
    "longitude":-50.689325
  },
  {
    "id":10,
    "name":"Thule Air Base",
    "city":"Thule",
    "country":"Greenland",
    "latitude":76.531203,
    "longitude":-68.703161
  },
  {
    "id":11,
    "name":"Akureyri",
    "city":"Akureyri",
    "country":"Iceland",
    "latitude":65.659994,
    "longitude":-18.072703
  },
  {
    "id":12,
    "name":"Egilsstadir",
    "city":"Egilsstadir",
    "country":"Iceland",
    "latitude":65.283333,
    "longitude":-14.401389
  },
  {
    "id":13,
    "name":"Hornafjordur",
    "city":"Hofn",
    "country":"Iceland",
    "latitude":64.295556,
    "longitude":-15.227222
  },
  {
    "id":14,
    "name":"Husavik",
    "city":"Husavik",
    "country":"Iceland",
    "latitude":65.952328,
    "longitude":-17.425978
  },
  {
    "id":15,
    "name":"Isafjordur",
    "city":"Isafjordur",
    "country":"Iceland",
    "latitude":66.058056,
    "longitude":-23.135278
  },
  {
    "id":16,
    "name":"Keflavik International Airport",
    "city":"Keflavik",
    "country":"Iceland",
    "latitude":63.985,
    "longitude":-22.605556
  },
  {
    "id":17,
    "name":"Patreksfjordur",
    "city":"Patreksfjordur",
    "country":"Iceland",
    "latitude":65.555833,
    "longitude":-23.965
  },
  {
    "id":18,
    "name":"Reykjavik",
    "city":"Reykjavik",
    "country":"Iceland",
    "latitude":64.13,
    "longitude":-21.940556
  },
  {
    "id":19,
    "name":"Siglufjordur",
    "city":"Siglufjordur",
    "country":"Iceland",
    "latitude":66.133333,
    "longitude":-18.916667
  },
  {
    "id":20,
    "name":"Vestmannaeyjar",
    "city":"Vestmannaeyjar",
    "country":"Iceland",
    "latitude":63.424303,
    "longitude":-20.278875
  },
  {
    "id":21,
    "name":"Sault Ste Marie",
    "city":"Sault Sainte Marie",
    "country":"Canada",
    "latitude":46.485001,
    "longitude":-84.509445
  },
  {
    "id":22,
    "name":"Winnipeg St Andrews",
    "city":"Winnipeg",
    "country":"Canada",
    "latitude":50.056389,
    "longitude":-97.0325
  },
  {
    "id":23,
    "name":"Shearwater",
    "city":"Halifax",
    "country":"Canada",
    "latitude":44.639721,
    "longitude":-63.499444
  },
  {
    "id":24,
    "name":"St Anthony",
    "city":"St. Anthony",
    "country":"Canada",
    "latitude":51.391944,
    "longitude":-56.083056
  },
  {
    "id":25,
    "name":"Tofino",
    "city":"Tofino",
    "country":"Canada",
    "latitude":49.082222,
    "longitude":-125.7725
  },
  {
    "id":26,
    "name":"Kugaaruk",
    "city":"Pelly Bay",
    "country":"Canada",
    "latitude":68.534444,
    "longitude":-89.808056
  },
  {
    "id":27,
    "name":"Baie Comeau",
    "city":"Baie Comeau",
    "country":"Canada",
    "latitude":49.1325,
    "longitude":-68.204444
  },
  {
    "id":28,
    "name":"Bagotville",
    "city":"Bagotville",
    "country":"Canada",
    "latitude":48.330555,
    "longitude":-70.996391
  },
  {
    "id":29,
    "name":"Baker Lake",
    "city":"Baker Lake",
    "country":"Canada",
    "latitude":64.298889,
    "longitude":-96.077778
  },
  {
    "id":30,
    "name":"Campbell River",
    "city":"Campbell River",
    "country":"Canada",
    "latitude":49.950832,
    "longitude":-125.270833
  },
  {
    "id":31,
    "name":"Brandon Muni",
    "city":"Brandon",
    "country":"Canada",
    "latitude":49.91,
    "longitude":-99.951944
  },
  {
    "id":32,
    "name":"Cambridge Bay",
    "city":"Cambridge Bay",
    "country":"Canada",
    "latitude":69.108055,
    "longitude":-105.138333
  },
  {
    "id":33,
    "name":"Nanaimo",
    "city":"Nanaimo",
    "country":"Canada",
    "latitude":49.052333,
    "longitude":-123.870167
  },
  {
    "id":34,
    "name":"Castlegar",
    "city":"Castlegar",
    "country":"Canada",
    "latitude":49.296389,
    "longitude":-117.6325
  },
  {
    "id":35,
    "name":"Miramichi",
    "city":"Chatham",
    "country":"Canada",
    "latitude":47.007778,
    "longitude":-65.449167
  },
  {
    "id":36,
    "name":"Charlo",
    "city":"Charlo",
    "country":"Canada",
    "latitude":47.990833,
    "longitude":-66.330278
  },
  {
    "id":37,
    "name":"Kugluktuk",
    "city":"Coppermine",
    "country":"Canada",
    "latitude":67.816667,
    "longitude":-115.143889
  },
  {
    "id":38,
    "name":"Coronation",
    "city":"Coronation",
    "country":"Canada",
    "latitude":52.075001,
    "longitude":-111.445278
  },
  {
    "id":39,
    "name":"Chilliwack",
    "city":"Chilliwack",
    "country":"Canada",
    "latitude":49.152779,
    "longitude":-121.93889
  },
  {
    "id":40,
    "name":"Clyde River",
    "city":"Clyde River",
    "country":"Canada",
    "latitude":70.486111,
    "longitude":-68.516667
  },
  {
    "id":41,
    "name":"Fairmont Hot Springs",
    "city":"Coral Harbour",
    "country":"Canada",
    "latitude":64.193333,
    "longitude":-83.359444
  },
  {
    "id":42,
    "name":"Dawson city",
    "city":"Dawson",
    "country":"Canada",
    "latitude":64.043056,
    "longitude":-139.127778
  },
  {
    "id":43,
    "name":"Burwash",
    "city":"Burwash",
    "country":"Canada",
    "latitude":61.371111,
    "longitude":-139.040556
  },
  {
    "id":44,
    "name":"Princeton",
    "city":"Princeton",
    "country":"Canada",
    "latitude":49.468056,
    "longitude":-120.511389
  },
  {
    "id":45,
    "name":"Deer Lake",
    "city":"Deer Lake",
    "country":"Canada",
    "latitude":49.210833,
    "longitude":-57.391388
  },
  {
    "id":46,
    "name":"Dease Lake",
    "city":"Dease Lake",
    "country":"Canada",
    "latitude":58.422222,
    "longitude":-130.032222
  },
  {
    "id":47,
    "name":"Dauphin Barker",
    "city":"Dauphin",
    "country":"Canada",
    "latitude":51.100834,
    "longitude":-100.0525
  },
  {
    "id":48,
    "name":"Dawson Creek",
    "city":"Dawson Creek",
    "country":"Canada",
    "latitude":55.742333,
    "longitude":-120.183
  },
  {
    "id":49,
    "name":"Edmonton Intl",
    "city":"Edmonton",
    "country":"Canada",
    "latitude":53.309723,
    "longitude":-113.579722
  },
  {
    "id":50,
    "name":"Arviat",
    "city":"Eskimo Point",
    "country":"Canada",
    "latitude":61.094166,
    "longitude":-94.070833
  },
  {
    "id":51,
    "name":"Estevan",
    "city":"Estevan",
    "country":"Canada",
    "latitude":49.210278,
    "longitude":-102.965833
  },
  {
    "id":52,
    "name":"Edson",
    "city":"Edson",
    "country":"Canada",
    "latitude":53.578888,
    "longitude":-116.465
  },
  {
    "id":53,
    "name":"Eureka",
    "city":"Eureka",
    "country":"Canada",
    "latitude":79.994722,
    "longitude":-85.814167
  },
  {
    "id":54,
    "name":"Inuvik Mike Zubko",
    "city":"Inuvik",
    "country":"Canada",
    "latitude":68.304167,
    "longitude":-133.482778
  },
  {
    "id":55,
    "name":"Iqaluit",
    "city":"Iqaluit",
    "country":"Canada",
    "latitude":63.75639,
    "longitude":-68.555832
  },
  {
    "id":56,
    "name":"Fredericton",
    "city":"Fredericton",
    "country":"Canada",
    "latitude":45.868889,
    "longitude":-66.537222
  },
  {
    "id":57,
    "name":"Forestville",
    "city":"Forestville",
    "country":"Canada",
    "latitude":48.746111,
    "longitude":-69.097222
  },
  {
    "id":58,
    "name":"Flin Flon",
    "city":"Flin Flon",
    "country":"Canada",
    "latitude":54.678055,
    "longitude":-101.681667
  },
  {
    "id":59,
    "name":"Fort Resolution",
    "city":"Fort Resolution",
    "country":"Canada",
    "latitude":61.180832,
    "longitude":-113.689722
  },
  {
    "id":60,
    "name":"Fort Simpson",
    "city":"Fort Simpson",
    "country":"Canada",
    "latitude":61.760153,
    "longitude":-121.236525
  },
  {
    "id":61,
    "name":"Kingston",
    "city":"Kingston",
    "country":"Canada",
    "latitude":44.225277,
    "longitude":-76.596944
  },
  {
    "id":62,
    "name":"La Grande Riviere",
    "city":"La Grande Riviere",
    "country":"Canada",
    "latitude":53.625278,
    "longitude":-77.704167
  },
  {
    "id":63,
    "name":"Gaspe",
    "city":"Gaspe",
    "country":"Canada",
    "latitude":48.775278,
    "longitude":-64.478611
  },
  {
    "id":64,
    "name":"Geraldton Greenstone Regional",
    "city":"Geraldton",
    "country":"Canada",
    "latitude":49.778332,
    "longitude":-86.939445
  },
  {
    "id":65,
    "name":"Iles De La Madeleine",
    "city":"Iles De La Madeleine",
    "country":"Canada",
    "latitude":47.424721,
    "longitude":-61.778056
  },
  {
    "id":66,
    "name":"Hudson Bay",
    "city":"Hudson Bay",
    "country":"Canada",
    "latitude":52.816666,
    "longitude":-102.31139
  },
  {
    "id":67,
    "name":"Dryden Rgnl",
    "city":"Dryden",
    "country":"Canada",
    "latitude":49.831667,
    "longitude":-92.744167
  },
  {
    "id":68,
    "name":"Ulukhaktok Holman",
    "city":"Holman Island",
    "country":"Canada",
    "latitude":70.762778,
    "longitude":-117.806111
  },
  {
    "id":69,
    "name":"Gjoa Haven",
    "city":"Gjoa Haven",
    "country":"Canada",
    "latitude":68.635556,
    "longitude":-95.849722
  },
  {
    "id":70,
    "name":"Hamilton",
    "city":"Hamilton",
    "country":"Canada",
    "latitude":43.173611,
    "longitude":-79.935
  },
  {
    "id":71,
    "name":"St Hubert",
    "city":"Montreal",
    "country":"Canada",
    "latitude":45.5175,
    "longitude":-73.416944
  },
  {
    "id":72,
    "name":"Hay River",
    "city":"Hay River",
    "country":"Canada",
    "latitude":60.839722,
    "longitude":-115.782778
  },
  {
    "id":73,
    "name":"Halifax Intl",
    "city":"Halifax",
    "country":"Canada",
    "latitude":44.880833,
    "longitude":-63.50861
  },
  {
    "id":74,
    "name":"Atikokan Muni",
    "city":"Atikokan",
    "country":"Canada",
    "latitude":48.773888,
    "longitude":-91.638611
  },
  {
    "id":75,
    "name":"Pond Inlet",
    "city":"Pond Inlet",
    "country":"Canada",
    "latitude":72.683334,
    "longitude":-77.966667
  },
  {
    "id":76,
    "name":"St Jean",
    "city":"St. Jean",
    "country":"Canada",
    "latitude":45.294445,
    "longitude":-73.281111
  },
  {
    "id":77,
    "name":"Stephenville",
    "city":"Stephenville",
    "country":"Canada",
    "latitude":48.544167,
    "longitude":-58.549999
  },
  {
    "id":78,
    "name":"Kamloops",
    "city":"Kamloops",
    "country":"Canada",
    "latitude":50.702222,
    "longitude":-120.444444
  },
  {
    "id":79,
    "name":"Waterloo",
    "city":"Waterloo",
    "country":"Canada",
    "latitude":43.460833,
    "longitude":-80.378611
  },
  {
    "id":80,
    "name":"Schefferville",
    "city":"Schefferville",
    "country":"Canada",
    "latitude":54.805278,
    "longitude":-66.805278
  },
  {
    "id":81,
    "name":"Kindersley",
    "city":"Kindersley",
    "country":"Canada",
    "latitude":51.5175,
    "longitude":-109.180833
  },
  {
    "id":82,
    "name":"Buttonville Muni",
    "city":"Toronto",
    "country":"Canada",
    "latitude":43.862221,
    "longitude":-79.37
  },
  {
    "id":83,
    "name":"Chapleau",
    "city":"Chapleau",
    "country":"Canada",
    "latitude":47.82,
    "longitude":-83.346667
  },
  {
    "id":84,
    "name":"Meadow Lake",
    "city":"Meadow Lake",
    "country":"Canada",
    "latitude":54.125278,
    "longitude":-108.522778
  },
  {
    "id":85,
    "name":"Lloydminster",
    "city":"Lloydminster",
    "country":"Canada",
    "latitude":53.309166,
    "longitude":-110.0725
  },
  {
    "id":86,
    "name":"Alert",
    "city":"Alert",
    "country":"Canada",
    "latitude":82.517778,
    "longitude":-62.280556
  },
  {
    "id":87,
    "name":"Kelowna",
    "city":"Kelowna",
    "country":"Canada",
    "latitude":49.956112,
    "longitude":-119.377778
  },
  {
    "id":88,
    "name":"Mayo",
    "city":"Mayo",
    "country":"Canada",
    "latitude":63.616389,
    "longitude":-135.868333
  },
  {
    "id":89,
    "name":"Moose Jaw Air Vice Marshal C M Mcewen",
    "city":"Moose Jaw",
    "country":"Canada",
    "latitude":50.330278,
    "longitude":-105.559167
  },
  {
    "id":90,
    "name":"Fort Mcmurray",
    "city":"Fort Mcmurray",
    "country":"Canada",
    "latitude":56.653333,
    "longitude":-111.221944
  },
  {
    "id":91,
    "name":"Moosonee",
    "city":"Moosonee",
    "country":"Canada",
    "latitude":51.291111,
    "longitude":-80.607778
  },
  {
    "id":92,
    "name":"Maniwaki",
    "city":"Maniwaki",
    "country":"Canada",
    "latitude":46.272778,
    "longitude":-75.990556
  },
  {
    "id":93,
    "name":"Montreal Intl Mirabel",
    "city":"Montreal",
    "country":"Canada",
    "latitude":45.681944,
    "longitude":-74.005278
  },
  {
    "id":94,
    "name":"Natashquan",
    "city":"Natashquan",
    "country":"Canada",
    "latitude":50.19,
    "longitude":-61.789167
  },
  {
    "id":95,
    "name":"Gatineau",
    "city":"Gatineau",
    "country":"Canada",
    "latitude":45.521694,
    "longitude":-75.563589
  },
  {
    "id":96,
    "name":"Matagami",
    "city":"Matagami",
    "country":"Canada",
    "latitude":49.761667,
    "longitude":-77.802778
  },
  {
    "id":97,
    "name":"Old Crow",
    "city":"Old Crow",
    "country":"Canada",
    "latitude":67.570556,
    "longitude":-139.839167
  },
  {
    "id":98,
    "name":"Cold Lake",
    "city":"Cold Lake",
    "country":"Canada",
    "latitude":54.404999,
    "longitude":-110.279444
  },
  {
    "id":99,
    "name":"High Level",
    "city":"High Level",
    "country":"Canada",
    "latitude":58.621389,
    "longitude":-117.164722
  },
  {
    "id":100,
    "name":"Ottawa Macdonald Cartier Intl",
    "city":"Ottawa",
    "country":"Canada",
    "latitude":45.3225,
    "longitude":-75.669167
  },
  {
    "id":101,
    "name":"Prince Albert Glass Field",
    "city":"Prince Albert",
    "country":"Canada",
    "latitude":53.214167,
    "longitude":-105.672778
  },
  {
    "id":102,
    "name":"Peace River",
    "city":"Peace River",
    "country":"Canada",
    "latitude":56.226944,
    "longitude":-117.447222
  },
  {
    "id":103,
    "name":"Southport",
    "city":"Portage-la-prairie",
    "country":"Canada",
    "latitude":49.903056,
    "longitude":-98.273889
  },
  {
    "id":104,
    "name":"Pitt Meadows",
    "city":"Pitt Meadows",
    "country":"Canada",
    "latitude":49.21611,
    "longitude":-122.71
  },
  {
    "id":105,
    "name":"Pickle Lake",
    "city":"Pickle Lake",
    "country":"Canada",
    "latitude":51.446388,
    "longitude":-90.214167
  },
  {
    "id":106,
    "name":"Port Menier",
    "city":"Port Menier",
    "country":"Canada",
    "latitude":49.836389,
    "longitude":-64.288611
  },
  {
    "id":107,
    "name":"Peterborough",
    "city":"Peterborough",
    "country":"Canada",
    "latitude":44.23,
    "longitude":-78.363333
  },
  {
    "id":108,
    "name":"Prince Rupert",
    "city":"Prince Pupert",
    "country":"Canada",
    "latitude":54.28611,
    "longitude":-130.444722
  },
  {
    "id":109,
    "name":"Fort Chipewyan",
    "city":"Fort Chipewyan",
    "country":"Canada",
    "latitude":58.767223,
    "longitude":-111.117222
  },
  {
    "id":110,
    "name":"Muskoka",
    "city":"Muskoka",
    "country":"Canada",
    "latitude":44.974722,
    "longitude":-79.303333
  },
  {
    "id":111,
    "name":"Quebec Jean Lesage Intl",
    "city":"Quebec",
    "country":"Canada",
    "latitude":46.791111,
    "longitude":-71.393333
  },
  {
    "id":112,
    "name":"Red Deer Regional",
    "city":"Red Deer Industrial",
    "country":"Canada",
    "latitude":52.182222,
    "longitude":-113.894444
  },
  {
    "id":113,
    "name":"Windsor",
    "city":"Windsor",
    "country":"Canada",
    "latitude":42.275556,
    "longitude":-82.955556
  },
  {
    "id":114,
    "name":"Watson Lake",
    "city":"Watson Lake",
    "country":"Canada",
    "latitude":60.116389,
    "longitude":-128.8225
  },
  {
    "id":115,
    "name":"Kenora",
    "city":"Kenora",
    "country":"Canada",
    "latitude":49.788334,
    "longitude":-94.363056
  },
  {
    "id":116,
    "name":"Lethbridge",
    "city":"Lethbridge",
    "country":"Canada",
    "latitude":49.630278,
    "longitude":-112.799722
  },
  {
    "id":117,
    "name":"Greater Moncton Intl",
    "city":"Moncton",
    "country":"Canada",
    "latitude":46.112221,
    "longitude":-64.678611
  },
  {
    "id":119,
    "name":"Comox",
    "city":"Comox",
    "country":"Canada",
    "latitude":49.710833,
    "longitude":-124.886667
  },
  {
    "id":120,
    "name":"Regina Intl",
    "city":"Regina",
    "country":"Canada",
    "latitude":50.431944,
    "longitude":-104.665833
  },
  {
    "id":121,
    "name":"Thunder Bay",
    "city":"Thunder Bay",
    "country":"Canada",
    "latitude":48.371944,
    "longitude":-89.323889
  },
  {
    "id":122,
    "name":"Grande Prairie",
    "city":"Grande Prairie",
    "country":"Canada",
    "latitude":55.179722,
    "longitude":-118.885
  },
  {
    "id":123,
    "name":"Yorkton Muni",
    "city":"Yorkton",
    "country":"Canada",
    "latitude":51.264721,
    "longitude":-102.461667
  },
  {
    "id":124,
    "name":"North Battleford",
    "city":"North Battleford",
    "country":"Canada",
    "latitude":52.769167,
    "longitude":-108.24361
  },
  {
    "id":125,
    "name":"Gander Intl",
    "city":"Gander",
    "country":"Canada",
    "latitude":48.936944,
    "longitude":-54.568056
  },
  {
    "id":126,
    "name":"Sydney",
    "city":"Sydney",
    "country":"Canada",
    "latitude":46.161388,
    "longitude":-60.047779
  },
  {
    "id":127,
    "name":"Quesnel",
    "city":"Quesnel",
    "country":"Canada",
    "latitude":53.026112,
    "longitude":-122.510278
  },
  {
    "id":128,
    "name":"Resolute Bay",
    "city":"Resolute",
    "country":"Canada",
    "latitude":74.716944,
    "longitude":-94.969444
  },
  {
    "id":129,
    "name":"Riviere Du Loup",
    "city":"Riviere Du Loup",
    "country":"Canada",
    "latitude":47.764444,
    "longitude":-69.584722
  },
  {
    "id":130,
    "name":"Roberval",
    "city":"Roberval",
    "country":"Canada",
    "latitude":48.52,
    "longitude":-72.265556
  },
  {
    "id":131,
    "name":"Rocky Mountain House",
    "city":"Rocky Mountain House",
    "country":"Canada",
    "latitude":52.429722,
    "longitude":-114.904167
  },
  {
    "id":132,
    "name":"Rankin Inlet",
    "city":"Rankin Inlet",
    "country":"Canada",
    "latitude":62.81139,
    "longitude":-92.115833
  },
  {
    "id":133,
    "name":"Sudbury",
    "city":"Sudbury",
    "country":"Canada",
    "latitude":46.625,
    "longitude":-80.798889
  },
  {
    "id":134,
    "name":"Sherbrooke",
    "city":"Sherbrooke",
    "country":"Canada",
    "latitude":45.438611,
    "longitude":-71.691389
  },
  {
    "id":135,
    "name":"Saint John",
    "city":"St. John",
    "country":"Canada",
    "latitude":45.316111,
    "longitude":-65.890278
  },
  {
    "id":136,
    "name":"Fort Smith",
    "city":"Fort Smith",
    "country":"Canada",
    "latitude":60.020278,
    "longitude":-111.961944
  },
  {
    "id":137,
    "name":"Nanisivik",
    "city":"Nanisivik",
    "country":"Canada",
    "latitude":72.982222,
    "longitude":-84.613611
  },
  {
    "id":138,
    "name":"Summerside",
    "city":"Summerside",
    "country":"Canada",
    "latitude":46.440556,
    "longitude":-63.833611
  },
  {
    "id":139,
    "name":"Sachs Harbour",
    "city":"Sachs Harbour",
    "country":"Canada",
    "latitude":71.993889,
    "longitude":-125.2425
  },
  {
    "id":140,
    "name":"Cape Dorset",
    "city":"Cape Dorset",
    "country":"Canada",
    "latitude":64.23,
    "longitude":-76.526667
  },
  {
    "id":141,
    "name":"Thompson",
    "city":"Thompson",
    "country":"Canada",
    "latitude":55.801111,
    "longitude":-97.864166
  },
  {
    "id":142,
    "name":"Trenton",
    "city":"Trenton",
    "country":"Canada",
    "latitude":44.118889,
    "longitude":-77.528056
  },
  {
    "id":143,
    "name":"Timmins",
    "city":"Timmins",
    "country":"Canada",
    "latitude":48.569721,
    "longitude":-81.376667
  },
  {
    "id":144,
    "name":"city Centre",
    "city":"Toronto",
    "country":"Canada",
    "latitude":43.627499,
    "longitude":-79.396167
  },
  {
    "id":145,
    "name":"Tuktoyaktuk",
    "city":"Tuktoyaktuk",
    "country":"Canada",
    "latitude":69.433334,
    "longitude":-133.026389
  },
  {
    "id":146,
    "name":"Pierre Elliott Trudeau Intl",
    "city":"Montreal",
    "country":"Canada",
    "latitude":45.470556,
    "longitude":-73.740833
  },
  {
    "id":147,
    "name":"Repulse Bay",
    "city":"Repulse Bay",
    "country":"Canada",
    "latitude":66.521389,
    "longitude":-86.224722
  },
  {
    "id":148,
    "name":"Hall Beach",
    "city":"Hall Beach",
    "country":"Canada",
    "latitude":68.776111,
    "longitude":-81.243611
  },
  {
    "id":149,
    "name":"Rouyn Noranda",
    "city":"Rouyn",
    "country":"Canada",
    "latitude":48.206111,
    "longitude":-78.835556
  },
  {
    "id":150,
    "name":"La Ronge",
    "city":"La Ronge",
    "country":"Canada",
    "latitude":55.15139,
    "longitude":-105.261944
  },
  {
    "id":151,
    "name":"Vermilion",
    "city":"Vermillion",
    "country":"Canada",
    "latitude":53.355833,
    "longitude":-110.82389
  },
  {
    "id":152,
    "name":"Qikiqtarjuaq",
    "city":"Broughton Island",
    "country":"Canada",
    "latitude":67.545833,
    "longitude":-64.031389
  },
  {
    "id":153,
    "name":"Val D Or",
    "city":"Val D'or",
    "country":"Canada",
    "latitude":48.053333,
    "longitude":-77.782778
  },
  {
    "id":154,
    "name":"Kuujjuaq",
    "city":"Quujjuaq",
    "country":"Canada",
    "latitude":58.096111,
    "longitude":-68.426944
  },
  {
    "id":155,
    "name":"Norman Wells",
    "city":"Norman Wells",
    "country":"Canada",
    "latitude":65.281617,
    "longitude":-126.798219
  },
  {
    "id":156,
    "name":"Vancouver Intl",
    "city":"Vancouver",
    "country":"Canada",
    "latitude":49.193889,
    "longitude":-123.184444
  },
  {
    "id":157,
    "name":"Buffalo Narrows",
    "city":"Buffalo Narrows",
    "country":"Canada",
    "latitude":55.841944,
    "longitude":-108.4175
  },
  {
    "id":158,
    "name":"Wiarton",
    "city":"Wiarton",
    "country":"Canada",
    "latitude":44.745834,
    "longitude":-81.107222
  },
  {
    "id":159,
    "name":"Petawawa",
    "city":"Petawawa",
    "country":"Canada",
    "latitude":45.952221,
    "longitude":-77.319168
  },
  {
    "id":160,
    "name":"Winnipeg Intl",
    "city":"Winnipeg",
    "country":"Canada",
    "latitude":49.910036,
    "longitude":-97.239886
  },
  {
    "id":161,
    "name":"Wabush",
    "city":"Wabush",
    "country":"Canada",
    "latitude":52.921944,
    "longitude":-66.864444
  },
  {
    "id":162,
    "name":"Williams Lake",
    "city":"Williams Lake",
    "country":"Canada",
    "latitude":52.183056,
    "longitude":-122.054167
  },
  {
    "id":163,
    "name":"Wrigley",
    "city":"Wrigley",
    "country":"Canada",
    "latitude":63.209444,
    "longitude":-123.436667
  },
  {
    "id":164,
    "name":"Canadian Rockies Intl",
    "city":"Cranbrook",
    "country":"Canada",
    "latitude":49.612222,
    "longitude":-115.781944
  },
  {
    "id":165,
    "name":"Edmonton city Centre",
    "city":"Edmonton",
    "country":"Canada",
    "latitude":53.5725,
    "longitude":-113.520556
  },
  {
    "id":166,
    "name":"Saskatoon J G Diefenbaker Intl",
    "city":"Saskatoon",
    "country":"Canada",
    "latitude":52.170834,
    "longitude":-106.699722
  },
  {
    "id":167,
    "name":"Medicine Hat",
    "city":"Medicine Hat",
    "country":"Canada",
    "latitude":50.01889,
    "longitude":-110.720833
  },
  {
    "id":168,
    "name":"Fort St John",
    "city":"Fort Saint John",
    "country":"Canada",
    "latitude":56.238056,
    "longitude":-120.740278
  },
  {
    "id":169,
    "name":"Sioux Lookout",
    "city":"Sioux Lookout",
    "country":"Canada",
    "latitude":50.113889,
    "longitude":-91.905278
  },
  {
    "id":170,
    "name":"Pangnirtung",
    "city":"Pangnirtung",
    "country":"Canada",
    "latitude":66.145,
    "longitude":-65.713611
  },
  {
    "id":171,
    "name":"Timiskaming Rgnl",
    "city":"Earlton",
    "country":"Canada",
    "latitude":47.695,
    "longitude":-79.848889
  },
  {
    "id":172,
    "name":"Prince George",
    "city":"Prince George",
    "country":"Canada",
    "latitude":53.889444,
    "longitude":-122.678889
  },
  {
    "id":173,
    "name":"Terrace",
    "city":"Terrace",
    "country":"Canada",
    "latitude":54.468508,
    "longitude":-128.576219
  },
  {
    "id":174,
    "name":"London",
    "city":"London",
    "country":"Canada",
    "latitude":43.033056,
    "longitude":-81.151111
  },
  {
    "id":175,
    "name":"Abbotsford",
    "city":"Abbotsford",
    "country":"Canada",
    "latitude":49.025278,
    "longitude":-122.360556
  },
  {
    "id":176,
    "name":"Whitehorse Intl",
    "city":"Whitehorse",
    "country":"Canada",
    "latitude":60.709553,
    "longitude":-135.067269
  },
  {
    "id":177,
    "name":"North Bay",
    "city":"North Bay",
    "country":"Canada",
    "latitude":46.363611,
    "longitude":-79.422778
  },
  {
    "id":178,
    "name":"Calgary Intl",
    "city":"Calgary",
    "country":"Canada",
    "latitude":51.113888,
    "longitude":-114.020278
  },
  {
    "id":179,
    "name":"Smithers",
    "city":"Smithers",
    "country":"Canada",
    "latitude":54.824722,
    "longitude":-127.182778
  },
  {
    "id":180,
    "name":"Fort Nelson",
    "city":"Fort Nelson",
    "country":"Canada",
    "latitude":58.836389,
    "longitude":-122.596944
  },
  {
    "id":181,
    "name":"Penticton",
    "city":"Penticton",
    "country":"Canada",
    "latitude":49.463056,
    "longitude":-119.602222
  },
  {
    "id":182,
    "name":"Charlottetown",
    "city":"Charlottetown",
    "country":"Canada",
    "latitude":46.290001,
    "longitude":-63.121111
  },
  {
    "id":183,
    "name":"Taloyoak",
    "city":"Spence Bay",
    "country":"Canada",
    "latitude":69.546667,
    "longitude":-93.576667
  },
  {
    "id":184,
    "name":"Victoria Intl",
    "city":"Victoria",
    "country":"Canada",
    "latitude":48.646944,
    "longitude":-123.425833
  },
  {
    "id":185,
    "name":"Lynn Lake",
    "city":"Lynn Lake",
    "country":"Canada",
    "latitude":56.863888,
    "longitude":-101.07611
  },
  {
    "id":186,
    "name":"Swift Current",
    "city":"Swift Current",
    "country":"Canada",
    "latitude":50.291944,
    "longitude":-107.690556
  },
  {
    "id":187,
    "name":"Churchill",
    "city":"Churchill",
    "country":"Canada",
    "latitude":58.739167,
    "longitude":-94.065
  },
  {
    "id":188,
    "name":"Goose Bay",
    "city":"Goose Bay",
    "country":"Canada",
    "latitude":53.319168,
    "longitude":-60.425833
  },
  {
    "id":189,
    "name":"St Johns Intl",
    "city":"St. John's",
    "country":"Canada",
    "latitude":47.61861,
    "longitude":-52.751945
  },
  {
    "id":190,
    "name":"Kapuskasing",
    "city":"Kapuskasing",
    "country":"Canada",
    "latitude":49.413889,
    "longitude":-82.4675
  },
  {
    "id":191,
    "name":"Armstrong",
    "city":"Armstrong",
    "country":"Canada",
    "latitude":50.290279,
    "longitude":-88.909721
  },
  {
    "id":192,
    "name":"Mont Joli",
    "city":"Mont Joli",
    "country":"Canada",
    "latitude":48.608612,
    "longitude":-68.208056
  },
  {
    "id":193,
    "name":"Lester B Pearson Intl",
    "city":"Toronto",
    "country":"Canada",
    "latitude":43.677223,
    "longitude":-79.630556
  },
  {
    "id":194,
    "name":"Downsview",
    "city":"Toronto",
    "country":"Canada",
    "latitude":43.7425,
    "longitude":-79.465556
  },
  {
    "id":195,
    "name":"Gore Bay Manitoulin",
    "city":"Gore Bay",
    "country":"Canada",
    "latitude":45.885277,
    "longitude":-82.567778
  },
  {
    "id":196,
    "name":"Yellowknife",
    "city":"Yellowknife",
    "country":"Canada",
    "latitude":62.462778,
    "longitude":-114.440278
  },
  {
    "id":197,
    "name":"Slave Lake",
    "city":"Slave Lake",
    "country":"Canada",
    "latitude":55.293056,
    "longitude":-114.777222
  },
  {
    "id":198,
    "name":"Sandspit",
    "city":"Sandspit",
    "country":"Canada",
    "latitude":53.254333,
    "longitude":-131.813833
  },
  {
    "id":199,
    "name":"Chris Hadfield",
    "city":"Sarnia",
    "country":"Canada",
    "latitude":42.999444,
    "longitude":-82.308889
  },
  {
    "id":200,
    "name":"Port Hardy",
    "city":"Port Hardy",
    "country":"Canada",
    "latitude":50.680556,
    "longitude":-127.366667
  },
  {
    "id":201,
    "name":"Whitecourt",
    "city":"Whitecourt",
    "country":"Canada",
    "latitude":54.14389,
    "longitude":-115.786667
  },
  {
    "id":202,
    "name":"Sept Iles",
    "city":"Sept-iles",
    "country":"Canada",
    "latitude":50.223333,
    "longitude":-66.265556
  },
  {
    "id":203,
    "name":"Teslin",
    "city":"Teslin",
    "country":"Canada",
    "latitude":60.172779,
    "longitude":-132.742778
  },
  {
    "id":204,
    "name":"Greenwood",
    "city":"Greenwood",
    "country":"Canada",
    "latitude":44.984444,
    "longitude":-64.916944
  },
  {
    "id":205,
    "name":"Faro",
    "city":"Faro",
    "country":"Canada",
    "latitude":62.2075,
    "longitude":-133.375833
  },
  {
    "id":206,
    "name":"Fort Mcpherson",
    "city":"Fort Mcpherson",
    "country":"Canada",
    "latitude":67.4075,
    "longitude":-134.860556
  },
  {
    "id":207,
    "name":"Blida",
    "city":"Blida",
    "country":"Algeria",
    "latitude":36.503613,
    "longitude":2.814167
  },
  {
    "id":208,
    "name":"Bou Saada",
    "city":"Bou Saada",
    "country":"Algeria",
    "latitude":35.3325,
    "longitude":4.206389
  },
  {
    "id":209,
    "name":"Soummam",
    "city":"Bejaja",
    "country":"Algeria",
    "latitude":36.711997,
    "longitude":5.069922
  },
  {
    "id":210,
    "name":"Houari Boumediene",
    "city":"Algier",
    "country":"Algeria",
    "latitude":36.691014,
    "longitude":3.215408
  },
  {
    "id":211,
    "name":"Tiska",
    "city":"Djanet",
    "country":"Algeria",
    "latitude":24.292767,
    "longitude":9.452444
  },
  {
    "id":212,
    "name":"Boufarik",
    "city":"Boufarik",
    "country":"Algeria",
    "latitude":36.545834,
    "longitude":2.876111
  },
  {
    "id":213,
    "name":"Reggane",
    "city":"Reggan",
    "country":"Algeria",
    "latitude":26.710103,
    "longitude":0.285647
  },
  {
    "id":214,
    "name":"Illizi Takhamalt",
    "city":"Illizi",
    "country":"Algeria",
    "latitude":26.723536,
    "longitude":8.622653
  },
  {
    "id":215,
    "name":"Ain Oussera",
    "city":"Ain Oussera",
    "country":"Algeria",
    "latitude":35.525414,
    "longitude":2.878714
  },
  {
    "id":216,
    "name":"Tamanrasset",
    "city":"Tamanrasset",
    "country":"Algeria",
    "latitude":22.811461,
    "longitude":5.451075
  },
  {
    "id":217,
    "name":"Jijel",
    "city":"Jijel",
    "country":"Algeria",
    "latitude":36.795136,
    "longitude":5.873608
  },
  {
    "id":218,
    "name":"Mecheria",
    "city":"Mecheria",
    "country":"Algeria",
    "latitude":33.535853,
    "longitude":-0.242353
  },
  {
    "id":219,
    "name":"Relizane",
    "city":"Relizane",
    "country":"Algeria",
    "latitude":35.752239,
    "longitude":0.626272
  },
  {
    "id":220,
    "name":"Annaba",
    "city":"Annaba",
    "country":"Algeria",
    "latitude":36.822225,
    "longitude":7.809167
  },
  {
    "id":221,
    "name":"Mohamed Boudiaf Intl",
    "city":"Constantine",
    "country":"Algeria",
    "latitude":36.276028,
    "longitude":6.620386
  },
  {
    "id":222,
    "name":"Cheikh Larbi Tebessi",
    "city":"Tebessa",
    "country":"Algeria",
    "latitude":35.431611,
    "longitude":8.120717
  },
  {
    "id":224,
    "name":"Hassi R Mel",
    "city":"Tilrempt",
    "country":"Algeria",
    "latitude":32.930431,
    "longitude":3.311542
  },
  {
    "id":225,
    "name":"Bou Chekif",
    "city":"Tiaret",
    "country":"Algeria",
    "latitude":35.341136,
    "longitude":1.463147
  },
  {
    "id":226,
    "name":"Bou Sfer",
    "city":"Bou Sfer",
    "country":"Algeria",
    "latitude":35.735389,
    "longitude":-0.805389
  },
  {
    "id":227,
    "name":"Tindouf",
    "city":"Tindouf",
    "country":"Algeria",
    "latitude":27.700372,
    "longitude":-8.167103
  },
  {
    "id":228,
    "name":"Ech Cheliff",
    "city":"Ech-cheliff",
    "country":"Algeria",
    "latitude":36.212658,
    "longitude":1.331775
  },
  {
    "id":229,
    "name":"Tafaraoui",
    "city":"Oran",
    "country":"Algeria",
    "latitude":35.542444,
    "longitude":-0.532278
  },
  {
    "id":230,
    "name":"Zenata",
    "city":"Tlemcen",
    "country":"Algeria",
    "latitude":35.016667,
    "longitude":-1.45
  },
  {
    "id":231,
    "name":"Es Senia",
    "city":"Oran",
    "country":"Algeria",
    "latitude":35.623858,
    "longitude":-0.621183
  },
  {
    "id":232,
    "name":"Sidi Bel Abbes",
    "city":"Sidi Bel Abbes",
    "country":"Algeria",
    "latitude":35.171775,
    "longitude":-0.593275
  },
  {
    "id":233,
    "name":"Ghriss",
    "city":"Ghriss",
    "country":"Algeria",
    "latitude":35.207725,
    "longitude":0.147142
  },
  {
    "id":234,
    "name":"Touat Cheikh Sidi Mohamed Belkebir",
    "city":"Adrar",
    "country":"Algeria",
    "latitude":27.837589,
    "longitude":-0.186414
  },
  {
    "id":235,
    "name":"Biskra",
    "city":"Biskra",
    "country":"Algeria",
    "latitude":34.793289,
    "longitude":5.738231
  },
  {
    "id":236,
    "name":"El Golea",
    "city":"El Golea",
    "country":"Algeria",
    "latitude":30.571294,
    "longitude":2.859586
  },
  {
    "id":237,
    "name":"Noumerat",
    "city":"Ghardaia",
    "country":"Algeria",
    "latitude":32.384106,
    "longitude":3.794114
  },
  {
    "id":238,
    "name":"Oued Irara",
    "city":"Hassi Messaoud",
    "country":"Algeria",
    "latitude":31.672972,
    "longitude":6.140444
  },
  {
    "id":239,
    "name":"In Salah",
    "city":"In Salah",
    "country":"Algeria",
    "latitude":27.251022,
    "longitude":2.512017
  },
  {
    "id":240,
    "name":"Sidi Mahdi",
    "city":"Touggourt",
    "country":"Algeria",
    "latitude":33.067803,
    "longitude":6.088672
  },
  {
    "id":241,
    "name":"Laghouat",
    "city":"Laghouat",
    "country":"Algeria",
    "latitude":33.764383,
    "longitude":2.928344
  },
  {
    "id":242,
    "name":"Timimoun",
    "city":"Timimoun",
    "country":"Algeria",
    "latitude":29.237119,
    "longitude":0.276033
  },
  {
    "id":243,
    "name":"Ouargla",
    "city":"Ouargla",
    "country":"Algeria",
    "latitude":31.917223,
    "longitude":5.412778
  },
  {
    "id":244,
    "name":"In Amenas",
    "city":"Zarzaitine",
    "country":"Algeria",
    "latitude":28.05155,
    "longitude":9.642911
  },
  {
    "id":245,
    "name":"Cadjehoun",
    "city":"Cotonou",
    "country":"Benin",
    "latitude":6.357228,
    "longitude":2.384353
  },
  {
    "id":246,
    "name":"Ouagadougou",
    "city":"Ouagadougou",
    "country":"Burkina Faso",
    "latitude":12.353194,
    "longitude":-1.512417
  },
  {
    "id":247,
    "name":"Bobo Dioulasso",
    "city":"Bobo-dioulasso",
    "country":"Burkina Faso",
    "latitude":11.160056,
    "longitude":-4.330969
  },
  {
    "id":248,
    "name":"Kotoka Intl",
    "city":"Accra",
    "country":"Ghana",
    "latitude":5.605186,
    "longitude":-0.166786
  },
  {
    "id":249,
    "name":"Tamale",
    "city":"Tamale",
    "country":"Ghana",
    "latitude":9.557192,
    "longitude":-0.863214
  },
  {
    "id":250,
    "name":"Wa",
    "city":"Wa",
    "country":"Ghana",
    "latitude":10.082664,
    "longitude":-2.507694
  },
  {
    "id":251,
    "name":"Sunyani",
    "city":"Sunyani",
    "country":"Ghana",
    "latitude":7.361828,
    "longitude":-2.328756
  },
  {
    "id":252,
    "name":"Takoradi",
    "city":"Takoradi",
    "country":"Ghana",
    "latitude":4.896056,
    "longitude":-1.774756
  },
  {
    "id":253,
    "name":"Abidjan Felix Houphouet Boigny Intl",
    "city":"Abidjan",
    "country":"Cote d'Ivoire",
    "latitude":5.261386,
    "longitude":-3.926294
  },
  {
    "id":254,
    "name":"Bouake",
    "city":"Bouake",
    "country":"Cote d'Ivoire",
    "latitude":7.7388,
    "longitude":-5.073667
  },
  {
    "id":255,
    "name":"Daloa",
    "city":"Daloa",
    "country":"Cote d'Ivoire",
    "latitude":6.792808,
    "longitude":-6.473189
  },
  {
    "id":256,
    "name":"Korhogo",
    "city":"Korhogo",
    "country":"Cote d'Ivoire",
    "latitude":9.387183,
    "longitude":-5.556664
  },
  {
    "id":257,
    "name":"Man",
    "city":"Man",
    "country":"Cote d'Ivoire",
    "latitude":7.272069,
    "longitude":-7.587364
  },
  {
    "id":258,
    "name":"San Pedro",
    "city":"San Pedro",
    "country":"Cote d'Ivoire",
    "latitude":4.746717,
    "longitude":-6.660817
  },
  {
    "id":259,
    "name":"Yamoussoukro",
    "city":"Yamoussoukro",
    "country":"Cote d'Ivoire",
    "latitude":6.903167,
    "longitude":-5.365581
  },
  {
    "id":260,
    "name":"Nnamdi Azikiwe Intl",
    "city":"Abuja",
    "country":"Nigeria",
    "latitude":9.006792,
    "longitude":7.263172
  },
  {
    "id":261,
    "name":"Akure",
    "city":"Akure",
    "country":"Nigeria",
    "latitude":7.246739,
    "longitude":5.301008
  },
  {
    "id":262,
    "name":"Benin",
    "city":"Benin",
    "country":"Nigeria",
    "latitude":6.316981,
    "longitude":5.599503
  },
  {
    "id":263,
    "name":"Calabar",
    "city":"Calabar",
    "country":"Nigeria",
    "latitude":4.976019,
    "longitude":8.347197
  },
  {
    "id":264,
    "name":"Enugu",
    "city":"Enugu",
    "country":"Nigeria",
    "latitude":6.474272,
    "longitude":7.561961
  },
  {
    "id":265,
    "name":"Gusau",
    "city":"Gusau",
    "country":"Nigeria",
    "latitude":12.171667,
    "longitude":6.696111
  },
  {
    "id":266,
    "name":"Ibadan",
    "city":"Ibadan",
    "country":"Nigeria",
    "latitude":7.362458,
    "longitude":3.978333
  },
  {
    "id":267,
    "name":"Ilorin",
    "city":"Ilorin",
    "country":"Nigeria",
    "latitude":8.440211,
    "longitude":4.493919
  },
  {
    "id":268,
    "name":"Yakubu Gowon",
    "city":"Jos",
    "country":"Nigeria",
    "latitude":9.639828,
    "longitude":8.86905
  },
  {
    "id":269,
    "name":"Kaduna",
    "city":"Kaduna",
    "country":"Nigeria",
    "latitude":10.696025,
    "longitude":7.320114
  },
  {
    "id":270,
    "name":"Mallam Aminu Intl",
    "city":"Kano",
    "country":"Nigeria",
    "latitude":12.047589,
    "longitude":8.524622
  },
  {
    "id":271,
    "name":"Maiduguri",
    "city":"Maiduguri",
    "country":"Nigeria",
    "latitude":11.855347,
    "longitude":13.08095
  },
  {
    "id":272,
    "name":"Makurdi",
    "city":"Makurdi",
    "country":"Nigeria",
    "latitude":7.703883,
    "longitude":8.613939
  },
  {
    "id":273,
    "name":"Murtala Muhammed",
    "city":"Lagos",
    "country":"Nigeria",
    "latitude":6.577369,
    "longitude":3.321156
  },
  {
    "id":274,
    "name":"Minna New",
    "city":"Minna",
    "country":"Nigeria",
    "latitude":9.652172,
    "longitude":6.462256
  },
  {
    "id":275,
    "name":"Port Harcourt Intl",
    "city":"Port Hartcourt",
    "country":"Nigeria",
    "latitude":5.015494,
    "longitude":6.949594
  },
  {
    "id":276,
    "name":"Sadiq Abubakar Iii Intl",
    "city":"Sokoto",
    "country":"Nigeria",
    "latitude":12.916322,
    "longitude":5.207189
  },
  {
    "id":277,
    "name":"Yola",
    "city":"Yola",
    "country":"Nigeria",
    "latitude":9.257553,
    "longitude":12.430422
  },
  {
    "id":278,
    "name":"Zaria",
    "city":"Zaria",
    "country":"Nigeria",
    "latitude":11.130192,
    "longitude":7.685806
  },
  {
    "id":279,
    "name":"Maradi",
    "city":"Maradi",
    "country":"Niger",
    "latitude":13.502531,
    "longitude":7.126753
  },
  {
    "id":280,
    "name":"Diori Hamani",
    "city":"Niamey",
    "country":"Niger",
    "latitude":13.481547,
    "longitude":2.183614
  },
  {
    "id":281,
    "name":"Tahoua",
    "city":"Tahoua",
    "country":"Niger",
    "latitude":14.875658,
    "longitude":5.265358
  },
  {
    "id":282,
    "name":"Manu Dayak",
    "city":"Agadez",
    "country":"Niger",
    "latitude":16.965997,
    "longitude":8.000114
  },
  {
    "id":283,
    "name":"Dirkou",
    "city":"Dirkou",
    "country":"Niger",
    "latitude":18.968703,
    "longitude":12.86865
  },
  {
    "id":284,
    "name":"Diffa",
    "city":"Diffa",
    "country":"Niger",
    "latitude":13.372894,
    "longitude":12.626686
  },
  {
    "id":285,
    "name":"Zinder",
    "city":"Zinder",
    "country":"Niger",
    "latitude":13.778997,
    "longitude":8.983761
  },
  {
    "id":286,
    "name":"Habib Bourguiba Intl",
    "city":"Monastir",
    "country":"Tunisia",
    "latitude":35.758056,
    "longitude":10.754722
  },
  {
    "id":287,
    "name":"Carthage",
    "city":"Tunis",
    "country":"Tunisia",
    "latitude":36.851033,
    "longitude":10.227217
  },
  {
    "id":288,
    "name":"Sidi Ahmed Air Base",
    "city":"Bizerte",
    "country":"Tunisia",
    "latitude":37.245447,
    "longitude":9.791453
  },
  {
    "id":289,
    "name":"Remada",
    "city":"Remada",
    "country":"Tunisia",
    "latitude":32.306156,
    "longitude":10.382108
  },
  {
    "id":290,
    "name":"Gafsa",
    "city":"Gafsa",
    "country":"Tunisia",
    "latitude":34.422022,
    "longitude":8.822503
  },
  {
    "id":291,
    "name":"Gabes",
    "city":"Gabes",
    "country":"Tunisia",
    "latitude":33.876919,
    "longitude":10.103333
  },
  {
    "id":292,
    "name":"Borj El Amri",
    "city":"Bordj El Amri",
    "country":"Tunisia",
    "latitude":36.721339,
    "longitude":9.943147
  },
  {
    "id":293,
    "name":"Zarzis",
    "city":"Djerba",
    "country":"Tunisia",
    "latitude":33.875031,
    "longitude":10.775461
  },
  {
    "id":294,
    "name":"El Borma",
    "city":"El Borma",
    "country":"Tunisia",
    "latitude":31.704281,
    "longitude":9.254619
  },
  {
    "id":295,
    "name":"Thyna",
    "city":"Sfax",
    "country":"Tunisia",
    "latitude":34.717953,
    "longitude":10.690972
  },
  {
    "id":296,
    "name":"Nefta",
    "city":"Tozeur",
    "country":"Tunisia",
    "latitude":33.939722,
    "longitude":8.110556
  },
  {
    "id":297,
    "name":"Niamtougou International",
    "city":"Niatougou",
    "country":"Togo",
    "latitude":9.767333,
    "longitude":1.09125
  },
  {
    "id":298,
    "name":"Gnassingbe Eyadema Intl",
    "city":"Lome",
    "country":"Togo",
    "latitude":6.165611,
    "longitude":1.254511
  },
  {
    "id":299,
    "name":"Deurne",
    "city":"Antwerp",
    "country":"Belgium",
    "latitude":51.189444,
    "longitude":4.460278
  },
  {
    "id":300,
    "name":"Beauvechain",
    "city":"Beauvechain",
    "country":"Belgium",
    "latitude":50.75861,
    "longitude":4.768333
  },
  {
    "id":301,
    "name":"Kleine Brogel",
    "city":"Kleine Brogel",
    "country":"Belgium",
    "latitude":51.168333,
    "longitude":5.47
  },
  {
    "id":302,
    "name":"Brussels Natl",
    "city":"Brussels",
    "country":"Belgium",
    "latitude":50.901389,
    "longitude":4.484444
  },
  {
    "id":303,
    "name":"Bertrix",
    "city":"Bertrix",
    "country":"Belgium",
    "latitude":49.891667,
    "longitude":5.223889
  },
  {
    "id":304,
    "name":"Brussels South",
    "city":"Charleroi",
    "country":"Belgium",
    "latitude":50.459197,
    "longitude":4.453817
  },
  {
    "id":305,
    "name":"Chievres Ab",
    "city":"Chievres",
    "country":"Belgium",
    "latitude":50.575833,
    "longitude":3.831
  },
  {
    "id":306,
    "name":"Koksijde",
    "city":"Koksijde",
    "country":"Belgium",
    "latitude":51.090278,
    "longitude":2.652778
  },
  {
    "id":307,
    "name":"Florennes",
    "city":"Florennes",
    "country":"Belgium",
    "latitude":50.243333,
    "longitude":4.645833
  },
  {
    "id":308,
    "name":"Wevelgem",
    "city":"Kortrijk-vevelgem",
    "country":"Belgium",
    "latitude":50.817222,
    "longitude":3.204722
  },
  {
    "id":309,
    "name":"Liege",
    "city":"Liege",
    "country":"Belgium",
    "latitude":50.637417,
    "longitude":5.443222
  },
  {
    "id":310,
    "name":"Oostende",
    "city":"Ostend",
    "country":"Belgium",
    "latitude":51.198889,
    "longitude":2.862222
  },
  {
    "id":311,
    "name":"Zutendaal",
    "city":"Zutendaal",
    "country":"Belgium",
    "latitude":50.9475,
    "longitude":5.590556
  },
  {
    "id":312,
    "name":"Sint Truiden",
    "city":"Sint-truiden",
    "country":"Belgium",
    "latitude":50.791944,
    "longitude":5.201667
  },
  {
    "id":313,
    "name":"Saint Hubert Mil",
    "city":"St.-hubert",
    "country":"Belgium",
    "latitude":50.035833,
    "longitude":5.404167
  },
  {
    "id":314,
    "name":"Ursel",
    "city":"Ursel",
    "country":"Belgium",
    "latitude":51.144133,
    "longitude":3.474361
  },
  {
    "id":315,
    "name":"Weelde",
    "city":"Weelde",
    "country":"Belgium",
    "latitude":51.394783,
    "longitude":4.960194
  },
  {
    "id":316,
    "name":"Zoersel",
    "city":"Zoersel",
    "country":"Belgium",
    "latitude":51.264722,
    "longitude":4.753333
  },
  {
    "id":317,
    "name":"Bautzen",
    "city":"Bautzen",
    "country":"Germany",
    "latitude":51.193531,
    "longitude":14.519747
  },
  {
    "id":318,
    "name":"Altenburg Nobitz",
    "city":"Altenburg",
    "country":"Germany",
    "latitude":50.981817,
    "longitude":12.506361
  },
  {
    "id":319,
    "name":"Dessau",
    "city":"Dessau",
    "country":"Germany",
    "latitude":51.831828,
    "longitude":12.184033
  },
  {
    "id":320,
    "name":"Eisenhuttenstadt",
    "city":"Eisenhuettenstadt",
    "country":"Germany",
    "latitude":52.197333,
    "longitude":14.585667
  },
  {
    "id":6891,
    "name":"Putnam County Airport",
    "city":"Greencastle",
    "country":"United States",
    "latitude":39.6335556,
    "longitude":-86.8138056
  },
  {
    "id":322,
    "name":"Grossenhain",
    "city":"Suhl",
    "country":"Germany",
    "latitude":51.308111,
    "longitude":13.554973
  },
  {
    "id":323,
    "name":"Merseburg",
    "city":"Muehlhausen",
    "country":"Germany",
    "latitude":51.363,
    "longitude":11.940833
  },
  {
    "id":324,
    "name":"Halle Oppin",
    "city":"Halle",
    "country":"Germany",
    "latitude":51.552,
    "longitude":12.052667
  },
  {
    "id":325,
    "name":"Riesa Gohlis",
    "city":"Riesa",
    "country":"Germany",
    "latitude":51.2935,
    "longitude":13.356
  },
  {
    "id":326,
    "name":"Rechlin Larz",
    "city":"Rechlin-laerz",
    "country":"Germany",
    "latitude":53.306417,
    "longitude":12.753139
  },
  {
    "id":327,
    "name":"Strausberg",
    "city":"Strausberg",
    "country":"Germany",
    "latitude":52.579978,
    "longitude":13.915683
  },
  {
    "id":328,
    "name":"Schonhagen",
    "city":"Schoenhagen",
    "country":"Germany",
    "latitude":52.203258,
    "longitude":13.158408
  },
  {
    "id":329,
    "name":"Barth",
    "city":"Barth",
    "country":"Germany",
    "latitude":54.33754,
    "longitude":12.699705
  },
  {
    "id":330,
    "name":"Jena Schongleina",
    "city":"Jena",
    "country":"Germany",
    "latitude":50.915161,
    "longitude":11.714519
  },
  {
    "id":331,
    "name":"Kyritz",
    "city":"Kyritz",
    "country":"Germany",
    "latitude":52.918833,
    "longitude":12.425333
  },
  {
    "id":332,
    "name":"Magdeburg",
    "city":"Magdeburg",
    "country":"Germany",
    "latitude":52.073658,
    "longitude":11.626467
  },
  {
    "id":333,
    "name":"Rothenburg Gorlitz",
    "city":"Rothenburg/ol",
    "country":"Germany",
    "latitude":51.363167,
    "longitude":14.95
  },
  {
    "id":334,
    "name":"Anklam",
    "city":"Anklam",
    "country":"Germany",
    "latitude":53.8327,
    "longitude":13.669131
  },
  {
    "id":335,
    "name":"Cottbus Drewitz",
    "city":"Cottbus",
    "country":"Germany",
    "latitude":51.889475,
    "longitude":14.531986
  },
  {
    "id":336,
    "name":"Kamenz",
    "city":"Kamenz",
    "country":"Germany",
    "latitude":51.29625,
    "longitude":14.129
  },
  {
    "id":337,
    "name":"Schonefeld",
    "city":"Berlin",
    "country":"Germany",
    "latitude":52.380001,
    "longitude":13.5225
  },
  {
    "id":338,
    "name":"Dresden",
    "city":"Dresden",
    "country":"Germany",
    "latitude":51.132767,
    "longitude":13.767161
  },
  {
    "id":339,
    "name":"Erfurt",
    "city":"Erfurt",
    "country":"Germany",
    "latitude":50.979811,
    "longitude":10.958106
  },
  {
    "id":340,
    "name":"Frankfurt Main",
    "city":"Frankfurt",
    "country":"Germany",
    "latitude":50.026421,
    "longitude":8.543125
  },
  {
    "id":341,
    "name":"Munster Osnabruck",
    "city":"Munster",
    "country":"Germany",
    "latitude":52.134642,
    "longitude":7.684831
  },
  {
    "id":342,
    "name":"Hamburg",
    "city":"Hamburg",
    "country":"Germany",
    "latitude":53.630389,
    "longitude":9.988228
  },
  {
    "id":343,
    "name":"Tempelhof",
    "city":"Berlin",
    "country":"Germany",
    "latitude":52.473025,
    "longitude":13.403944
  },
  {
    "id":344,
    "name":"Koln Bonn",
    "city":"Cologne",
    "country":"Germany",
    "latitude":50.865917,
    "longitude":7.142744
  },
  {
    "id":345,
    "name":"Dusseldorf",
    "city":"Duesseldorf",
    "country":"Germany",
    "latitude":51.289453,
    "longitude":6.766775
  },
  {
    "id":346,
    "name":"Franz Josef Strauss",
    "city":"Munich",
    "country":"Germany",
    "latitude":48.353783,
    "longitude":11.786086
  },
  {
    "id":347,
    "name":"Nurnberg",
    "city":"Nuernberg",
    "country":"Germany",
    "latitude":49.4987,
    "longitude":11.066897
  },
  {
    "id":348,
    "name":"Leipzig Halle",
    "city":"Leipzig",
    "country":"Germany",
    "latitude":51.432447,
    "longitude":12.241633
  },
  {
    "id":349,
    "name":"Saarbrucken",
    "city":"Saarbruecken",
    "country":"Germany",
    "latitude":49.214553,
    "longitude":7.109508
  },
  {
    "id":350,
    "name":"Stuttgart",
    "city":"Stuttgart",
    "country":"Germany",
    "latitude":48.689878,
    "longitude":9.221964
  },
  {
    "id":351,
    "name":"Tegel",
    "city":"Berlin",
    "country":"Germany",
    "latitude":52.559686,
    "longitude":13.287711
  },
  {
    "id":352,
    "name":"Hannover",
    "city":"Hannover",
    "country":"Germany",
    "latitude":52.461056,
    "longitude":9.685078
  },
  {
    "id":353,
    "name":"Neuenland",
    "city":"Bremen",
    "country":"Germany",
    "latitude":53.0475,
    "longitude":8.786667
  },
  {
    "id":354,
    "name":"Egelsbach",
    "city":"Egelsbach",
    "country":"Germany",
    "latitude":49.960833,
    "longitude":8.6415
  },
  {
    "id":355,
    "name":"Frankfurt Hahn",
    "city":"Hahn",
    "country":"Germany",
    "latitude":49.948672,
    "longitude":7.263892
  },
  {
    "id":356,
    "name":"Mannheim city",
    "city":"Mannheim",
    "country":"Germany",
    "latitude":49.472706,
    "longitude":8.514264
  },
  {
    "id":357,
    "name":"Allendorf Eder",
    "city":"Allendorf",
    "country":"Germany",
    "latitude":51.034878,
    "longitude":8.680839
  },
  {
    "id":358,
    "name":"Worms",
    "city":"Worms",
    "country":"Germany",
    "latitude":49.606511,
    "longitude":8.3684
  },
  {
    "id":359,
    "name":"Mainz Finthen",
    "city":"Mainz",
    "country":"Germany",
    "latitude":49.968931,
    "longitude":8.148336
  },
  {
    "id":360,
    "name":"Eisenach Kindel",
    "city":"Eisenach",
    "country":"Germany",
    "latitude":50.992797,
    "longitude":10.472711
  },
  {
    "id":361,
    "name":"Siegerland",
    "city":"Siegerland",
    "country":"Germany",
    "latitude":50.707658,
    "longitude":8.082969
  },
  {
    "id":362,
    "name":"Hamburg Finkenwerder",
    "city":"Hamburg",
    "country":"Germany",
    "latitude":53.535886,
    "longitude":9.837025
  },
  {
    "id":363,
    "name":"Kiel Holtenau",
    "city":"Kiel",
    "country":"Germany",
    "latitude":54.3795,
    "longitude":10.145167
  },
  {
    "id":364,
    "name":"Lubeck Blankensee",
    "city":"Luebeck",
    "country":"Germany",
    "latitude":53.805367,
    "longitude":10.719222
  },
  {
    "id":365,
    "name":"Dahlemer Binz",
    "city":"Dahlemer Binz",
    "country":"Germany",
    "latitude":50.405888,
    "longitude":6.528083
  },
  {
    "id":366,
    "name":"Meinerzhagen",
    "city":"Meinerzhagen",
    "country":"Germany",
    "latitude":51.099445,
    "longitude":7.601944
  },
  {
    "id":367,
    "name":"Arnsberg Menden",
    "city":"Arnsberg",
    "country":"Germany",
    "latitude":51.483333,
    "longitude":7.899333
  },
  {
    "id":368,
    "name":"Essen Mulheim",
    "city":"Essen",
    "country":"Germany",
    "latitude":51.402333,
    "longitude":6.937333
  },
  {
    "id":369,
    "name":"Bielefeld",
    "city":"Bielefeld",
    "country":"Germany",
    "latitude":51.964833,
    "longitude":8.544833
  },
  {
    "id":370,
    "name":"Monchengladbach",
    "city":"Moenchengladbach",
    "country":"Germany",
    "latitude":51.230356,
    "longitude":6.504494
  },
  {
    "id":371,
    "name":"Paderborn Lippstadt",
    "city":"Paderborn",
    "country":"Germany",
    "latitude":51.614089,
    "longitude":8.616317
  },
  {
    "id":372,
    "name":"Stadtlohn Vreden",
    "city":"Stadtlohn",
    "country":"Germany",
    "latitude":51.995844,
    "longitude":6.840667
  },
  {
    "id":373,
    "name":"Dortmund",
    "city":"Dortmund",
    "country":"Germany",
    "latitude":51.518314,
    "longitude":7.612242
  },
  {
    "id":374,
    "name":"Augsburg",
    "city":"Augsburg",
    "country":"Germany",
    "latitude":48.425158,
    "longitude":10.931764
  },
  {
    "id":375,
    "name":"Biberach An Der Riss",
    "city":"Biberach",
    "country":"Germany",
    "latitude":48.111,
    "longitude":9.762833
  },
  {
    "id":376,
    "name":"Eggenfelden",
    "city":"Eggenfelden",
    "country":"Germany",
    "latitude":48.396167,
    "longitude":12.723667
  },
  {
    "id":377,
    "name":"Mindelheim Mattsies",
    "city":"Mindelheim",
    "country":"Germany",
    "latitude":48.108833,
    "longitude":10.524333
  },
  {
    "id":378,
    "name":"Oberpfaffenhofen",
    "city":"Oberpfaffenhofen",
    "country":"Germany",
    "latitude":48.081364,
    "longitude":11.283067
  },
  {
    "id":379,
    "name":"Straubing",
    "city":"Straubing",
    "country":"Germany",
    "latitude":48.90095,
    "longitude":12.518186
  },
  {
    "id":380,
    "name":"Vilshofen",
    "city":"Vilshofen",
    "country":"Germany",
    "latitude":48.635167,
    "longitude":13.195667
  },
  {
    "id":381,
    "name":"Leutkirch Unterzeil",
    "city":"Leutkirch",
    "country":"Germany",
    "latitude":47.859117,
    "longitude":10.014572
  },
  {
    "id":382,
    "name":"Friedrichshafen",
    "city":"Friedrichshafen",
    "country":"Germany",
    "latitude":47.671317,
    "longitude":9.511486
  },
  {
    "id":383,
    "name":"Schwerin Parchim",
    "city":"Parchim",
    "country":"Germany",
    "latitude":53.426997,
    "longitude":11.783436
  },
  {
    "id":384,
    "name":"Stendal Borstel",
    "city":"Stendal",
    "country":"Germany",
    "latitude":52.627778,
    "longitude":11.818333
  },
  {
    "id":385,
    "name":"Aalen Heidenheim Elchingen",
    "city":"Aalen-heidenheim",
    "country":"Germany",
    "latitude":48.777833,
    "longitude":10.264667
  },
  {
    "id":386,
    "name":"Bayreuth",
    "city":"Bayreuth",
    "country":"Germany",
    "latitude":49.984428,
    "longitude":11.638569
  },
  {
    "id":387,
    "name":"Burg Feuerstein",
    "city":"Burg Feuerstein",
    "country":"Germany",
    "latitude":49.793833,
    "longitude":11.133167
  },
  {
    "id":388,
    "name":"Hof Plauen",
    "city":"Hof",
    "country":"Germany",
    "latitude":50.288836,
    "longitude":11.854919
  },
  {
    "id":389,
    "name":"Hassfurt Schweinfurt",
    "city":"Hassfurt",
    "country":"Germany",
    "latitude":50.018,
    "longitude":10.5295
  },
  {
    "id":390,
    "name":"Koblenz Winningen",
    "city":"Koblenz",
    "country":"Germany",
    "latitude":50.3255,
    "longitude":7.528667
  },
  {
    "id":391,
    "name":"Trier Fohren",
    "city":"Trier",
    "country":"Germany",
    "latitude":49.8635,
    "longitude":6.788167
  },
  {
    "id":392,
    "name":"Speyer",
    "city":"Speyer",
    "country":"Germany",
    "latitude":49.302776,
    "longitude":8.451195
  },
  {
    "id":393,
    "name":"Zweibrucken",
    "city":"Zweibruecken",
    "country":"Germany",
    "latitude":49.209525,
    "longitude":7.400647
  },
  {
    "id":394,
    "name":"Donaueschingen Villingen",
    "city":"Donaueschingen",
    "country":"Germany",
    "latitude":47.973331,
    "longitude":8.522223
  },
  {
    "id":395,
    "name":"Freiburg",
    "city":"Freiburg",
    "country":"Germany",
    "latitude":48.022653,
    "longitude":7.832583
  },
  {
    "id":396,
    "name":"Mengen Hohentengen",
    "city":"Mengen",
    "country":"Germany",
    "latitude":48.053833,
    "longitude":9.372833
  },
  {
    "id":397,
    "name":"Schwabisch Hall",
    "city":"Schwaebisch Hall",
    "country":"Germany",
    "latitude":49.118317,
    "longitude":9.783956
  },
  {
    "id":398,
    "name":"Finsterwalde Schacksdorf",
    "city":"Soest",
    "country":"Germany",
    "latitude":51.6075,
    "longitude":13.738
  },
  {
    "id":399,
    "name":"Braunschweig Wolfsburg",
    "city":"Braunschweig",
    "country":"Germany",
    "latitude":52.319167,
    "longitude":10.556111
  },
  {
    "id":400,
    "name":"Kassel Calden",
    "city":"Kassel",
    "country":"Germany",
    "latitude":51.408394,
    "longitude":9.377631
  },
  {
    "id":401,
    "name":"Hildesheim",
    "city":"Hildesheim",
    "country":"Germany",
    "latitude":52.179833,
    "longitude":9.945667
  },
  {
    "id":402,
    "name":"Bremerhaven",
    "city":"Bremerhaven",
    "country":"Germany",
    "latitude":53.507081,
    "longitude":8.572878
  },
  {
    "id":403,
    "name":"Emden",
    "city":"Emden",
    "country":"Germany",
    "latitude":53.391186,
    "longitude":7.227408
  },
  {
    "id":404,
    "name":"Leer Papenburg",
    "city":"Leer",
    "country":"Germany",
    "latitude":53.271592,
    "longitude":7.442344
  },
  {
    "id":405,
    "name":"Wilhelmshaven Mariensiel",
    "city":"Wilhelmshaven",
    "country":"Germany",
    "latitude":53.504833,
    "longitude":8.053333
  },
  {
    "id":406,
    "name":"Borkum",
    "city":"Borkum",
    "country":"Germany",
    "latitude":53.5955,
    "longitude":6.709167
  },
  {
    "id":407,
    "name":"Norderney",
    "city":"Norderney",
    "country":"Germany",
    "latitude":53.706822,
    "longitude":7.230247
  },
  {
    "id":408,
    "name":"Flensburg Schaferhaus",
    "city":"Flensburg",
    "country":"Germany",
    "latitude":54.771772,
    "longitude":9.378214
  },
  {
    "id":409,
    "name":"Rendsburg Schachtholm",
    "city":"Rendsburg",
    "country":"Germany",
    "latitude":54.220928,
    "longitude":9.600803
  },
  {
    "id":410,
    "name":"Westerland Sylt",
    "city":"Westerland",
    "country":"Germany",
    "latitude":54.91325,
    "longitude":8.340472
  },
  {
    "id":411,
    "name":"Amari",
    "city":"Armari Air Force Base",
    "country":"Estonia",
    "latitude":59.260286,
    "longitude":24.208467
  },
  {
    "id":412,
    "name":"Kardla",
    "city":"Kardla",
    "country":"Estonia",
    "latitude":58.990756,
    "longitude":22.830733
  },
  {
    "id":413,
    "name":"Kuressaare",
    "city":"Kuressaare",
    "country":"Estonia",
    "latitude":58.229883,
    "longitude":22.509494
  },
  {
    "id":414,
    "name":"Parnu",
    "city":"Parnu",
    "country":"Estonia",
    "latitude":58.419044,
    "longitude":24.472819
  },
  {
    "id":415,
    "name":"Tallinn",
    "city":"Tallinn-ulemiste International",
    "country":"Estonia",
    "latitude":59.413317,
    "longitude":24.832844
  },
  {
    "id":416,
    "name":"Tartu",
    "city":"Tartu",
    "country":"Estonia",
    "latitude":58.307461,
    "longitude":26.690428
  },
  {
    "id":417,
    "name":"Enontekio",
    "city":"Enontekio",
    "country":"Finland",
    "latitude":68.362586,
    "longitude":23.424322
  },
  {
    "id":418,
    "name":"Eura",
    "city":"Eura",
    "country":"Finland",
    "latitude":61.116112,
    "longitude":22.201389
  },
  {
    "id":419,
    "name":"Halli",
    "city":"Halli",
    "country":"Finland",
    "latitude":61.85605,
    "longitude":24.7866
  },
  {
    "id":420,
    "name":"Helsinki Malmi",
    "city":"Helsinki",
    "country":"Finland",
    "latitude":60.254558,
    "longitude":25.042828
  },
  {
    "id":421,
    "name":"Helsinki Vantaa",
    "city":"Helsinki",
    "country":"Finland",
    "latitude":60.317222,
    "longitude":24.963333
  },
  {
    "id":422,
    "name":"Hameenkyro",
    "city":"Hameenkyro",
    "country":"Finland",
    "latitude":61.689656,
    "longitude":23.073744
  },
  {
    "id":423,
    "name":"Hanko",
    "city":"Hanko",
    "country":"Finland",
    "latitude":59.848864,
    "longitude":23.083583
  },
  {
    "id":424,
    "name":"Hyvinkaa",
    "city":"Hyvinkaa",
    "country":"Finland",
    "latitude":60.654444,
    "longitude":24.881111
  },
  {
    "id":425,
    "name":"Kiikala",
    "city":"Kikala",
    "country":"Finland",
    "latitude":60.462502,
    "longitude":23.6525
  },
  {
    "id":426,
    "name":"Immola",
    "city":"Immola",
    "country":"Finland",
    "latitude":61.249172,
    "longitude":28.903711
  },
  {
    "id":427,
    "name":"Kitee",
    "city":"Kitee",
    "country":"Finland",
    "latitude":62.166111,
    "longitude":30.073611
  },
  {
    "id":428,
    "name":"Ivalo",
    "city":"Ivalo",
    "country":"Finland",
    "latitude":68.607269,
    "longitude":27.405328
  },
  {
    "id":429,
    "name":"Joensuu",
    "city":"Joensuu",
    "country":"Finland",
    "latitude":62.662906,
    "longitude":29.60755
  },
  {
    "id":430,
    "name":"Jyvaskyla",
    "city":"Jyvaskyla",
    "country":"Finland",
    "latitude":62.399453,
    "longitude":25.678253
  },
  {
    "id":431,
    "name":"Kauhava",
    "city":"Kauhava",
    "country":"Finland",
    "latitude":63.127078,
    "longitude":23.051442
  },
  {
    "id":432,
    "name":"Kemi Tornio",
    "city":"Kemi",
    "country":"Finland",
    "latitude":65.781889,
    "longitude":24.5991
  },
  {
    "id":433,
    "name":"Kajaani",
    "city":"Kajaani",
    "country":"Finland",
    "latitude":64.285472,
    "longitude":27.692414
  },
  {
    "id":434,
    "name":"Kauhajoki",
    "city":"Kauhajoki",
    "country":"Finland",
    "latitude":62.462502,
    "longitude":22.393055
  },
  {
    "id":435,
    "name":"Kruunupyy",
    "city":"Kruunupyy",
    "country":"Finland",
    "latitude":63.721172,
    "longitude":23.143131
  },
  {
    "id":436,
    "name":"Kemijarvi",
    "city":"Kemijarvi",
    "country":"Finland",
    "latitude":66.712883,
    "longitude":27.156786
  },
  {
    "id":437,
    "name":"Kuusamo",
    "city":"Kuusamo",
    "country":"Finland",
    "latitude":65.987575,
    "longitude":29.239381
  },
  {
    "id":438,
    "name":"Kittila",
    "city":"Kittila",
    "country":"Finland",
    "latitude":67.701022,
    "longitude":24.84685
  },
  {
    "id":439,
    "name":"Kuopio",
    "city":"Kuopio",
    "country":"Finland",
    "latitude":63.00715,
    "longitude":27.797756
  },
  {
    "id":440,
    "name":"Lahti Vesivehmaa",
    "city":"Vesivehmaa",
    "country":"Finland",
    "latitude":61.144158,
    "longitude":25.693508
  },
  {
    "id":441,
    "name":"Lappeenranta",
    "city":"Lappeenranta",
    "country":"Finland",
    "latitude":61.044553,
    "longitude":28.144397
  },
  {
    "id":442,
    "name":"Mariehamn",
    "city":"Mariehamn",
    "country":"Finland",
    "latitude":60.122203,
    "longitude":19.898156
  },
  {
    "id":443,
    "name":"Menkijarvi",
    "city":"Menkijarvi",
    "country":"Finland",
    "latitude":62.946667,
    "longitude":23.518889
  },
  {
    "id":444,
    "name":"Mikkeli",
    "city":"Mikkeli",
    "country":"Finland",
    "latitude":61.6866,
    "longitude":27.201794
  },
  {
    "id":445,
    "name":"Nummela",
    "city":"Nummela",
    "country":"Finland",
    "latitude":60.333889,
    "longitude":24.296389
  },
  {
    "id":446,
    "name":"Oulu",
    "city":"Oulu",
    "country":"Finland",
    "latitude":64.930061,
    "longitude":25.354564
  },
  {
    "id":447,
    "name":"Piikajarvi",
    "city":"Piikajarvi",
    "country":"Finland",
    "latitude":61.245558,
    "longitude":22.193356
  },
  {
    "id":448,
    "name":"Pori",
    "city":"Pori",
    "country":"Finland",
    "latitude":61.461686,
    "longitude":21.799983
  },
  {
    "id":449,
    "name":"Pudasjarvi",
    "city":"Pudasjarvi",
    "country":"Finland",
    "latitude":65.402222,
    "longitude":26.946944
  },
  {
    "id":450,
    "name":"Pyhasalmi",
    "city":"Pyhasalmi",
    "country":"Finland",
    "latitude":63.731917,
    "longitude":25.926306
  },
  {
    "id":451,
    "name":"Raahe Pattijoki",
    "city":"Pattijoki",
    "country":"Finland",
    "latitude":64.688056,
    "longitude":24.695833
  },
  {
    "id":452,
    "name":"Rantasalmi",
    "city":"Rantasalmi",
    "country":"Finland",
    "latitude":62.065481,
    "longitude":28.356494
  },
  {
    "id":453,
    "name":"Rovaniemi",
    "city":"Rovaniemi",
    "country":"Finland",
    "latitude":66.564822,
    "longitude":25.830411
  },
  {
    "id":454,
    "name":"Rayskala",
    "city":"Rayskala",
    "country":"Finland",
    "latitude":60.744722,
    "longitude":24.107778
  },
  {
    "id":455,
    "name":"Savonlinna",
    "city":"Savonlinna",
    "country":"Finland",
    "latitude":61.943064,
    "longitude":28.945136
  },
  {
    "id":456,
    "name":"Selanpaa",
    "city":"Selanpaa",
    "country":"Finland",
    "latitude":61.062389,
    "longitude":26.798861
  },
  {
    "id":457,
    "name":"Sodankyla",
    "city":"Sodankyla",
    "country":"Finland",
    "latitude":67.395033,
    "longitude":26.619133
  },
  {
    "id":458,
    "name":"Tampere Pirkkala",
    "city":"Tampere",
    "country":"Finland",
    "latitude":61.414147,
    "longitude":23.604392
  },
  {
    "id":459,
    "name":"Teisko",
    "city":"Teisko",
    "country":"Finland",
    "latitude":61.77335,
    "longitude":24.027006
  },
  {
    "id":460,
    "name":"Turku",
    "city":"Turku",
    "country":"Finland",
    "latitude":60.514142,
    "longitude":22.262808
  },
  {
    "id":461,
    "name":"Utti",
    "city":"Utti",
    "country":"Finland",
    "latitude":60.896394,
    "longitude":26.938353
  },
  {
    "id":462,
    "name":"Vaasa",
    "city":"Vaasa",
    "country":"Finland",
    "latitude":63.05065,
    "longitude":21.762175
  },
  {
    "id":463,
    "name":"Varkaus",
    "city":"Varkaus",
    "country":"Finland",
    "latitude":62.171111,
    "longitude":27.868611
  },
  {
    "id":464,
    "name":"Ylivieska",
    "city":"Ylivieska-raudaskyla",
    "country":"Finland",
    "latitude":64.060547,
    "longitude":24.715953
  },
  {
    "id":465,
    "name":"Belfast Intl",
    "city":"Belfast",
    "country":"United Kingdom",
    "latitude":54.6575,
    "longitude":-6.215833
  },
  {
    "id":466,
    "name":"St Angelo",
    "city":"Enniskillen",
    "country":"United Kingdom",
    "latitude":54.398889,
    "longitude":-7.651667
  },
  {
    "id":467,
    "name":"Belfast city",
    "city":"Belfast",
    "country":"United Kingdom",
    "latitude":54.618056,
    "longitude":-5.8725
  },
  {
    "id":468,
    "name":"city of Derry",
    "city":"Londonderry",
    "country":"United Kingdom",
    "latitude":55.042778,
    "longitude":-7.161111
  },
  {
    "id":469,
    "name":"Birmingham",
    "city":"Birmingham",
    "country":"United Kingdom",
    "latitude":52.453856,
    "longitude":-1.748028
  },
  {
    "id":470,
    "name":"Coventry",
    "city":"Coventry",
    "country":"United Kingdom",
    "latitude":52.369722,
    "longitude":-1.479722
  },
  {
    "id":471,
    "name":"Leicester",
    "city":"Leicester",
    "country":"United Kingdom",
    "latitude":52.607778,
    "longitude":-1.031944
  },
  {
    "id":472,
    "name":"Gloucestershire",
    "city":"Golouchestershire",
    "country":"United Kingdom",
    "latitude":51.894167,
    "longitude":-2.167222
  },
  {
    "id":474,
    "name":"Wolverhampton",
    "city":"Halfpenny Green",
    "country":"United Kingdom",
    "latitude":52.5175,
    "longitude":-2.259444
  },
  {
    "id":475,
    "name":"Kemble",
    "city":"Pailton",
    "country":"United Kingdom",
    "latitude":51.668056,
    "longitude":-2.056944
  },
  {
    "id":476,
    "name":"Turweston",
    "city":"Turweston",
    "country":"United Kingdom",
    "latitude":52.040833,
    "longitude":-1.095556
  },
  {
    "id":477,
    "name":"Wellesbourne Mountford",
    "city":"Wellesbourne",
    "country":"United Kingdom",
    "latitude":52.192222,
    "longitude":-1.614444
  },
  {
    "id":478,
    "name":"Manchester",
    "city":"Manchester",
    "country":"United Kingdom",
    "latitude":53.353744,
    "longitude":-2.27495
  },
  {
    "id":479,
    "name":"Manchester Woodford",
    "city":"Woodfort",
    "country":"United Kingdom",
    "latitude":53.338056,
    "longitude":-2.148889
  },
  {
    "id":480,
    "name":"Chivenor",
    "city":"Chivenor",
    "country":"United Kingdom",
    "latitude":51.087167,
    "longitude":-4.150339
  },
  {
    "id":481,
    "name":"St Mawgan",
    "city":"Newquai",
    "country":"United Kingdom",
    "latitude":50.440558,
    "longitude":-4.995408
  },
  {
    "id":482,
    "name":"Lyneham",
    "city":"Lyneham",
    "country":"United Kingdom",
    "latitude":51.505144,
    "longitude":-1.993428
  },
  {
    "id":483,
    "name":"Boscombe Down",
    "city":"Boscombe Down",
    "country":"United Kingdom",
    "latitude":51.152189,
    "longitude":-1.747414
  },
  {
    "id":484,
    "name":"Culdrose",
    "city":"Culdrose",
    "country":"United Kingdom",
    "latitude":50.086092,
    "longitude":-5.255711
  },
  {
    "id":485,
    "name":"St Athan",
    "city":"St. Athan",
    "country":"United Kingdom",
    "latitude":51.404811,
    "longitude":-3.43575
  },
  {
    "id":486,
    "name":"Yeovilton",
    "city":"Yeovilton",
    "country":"United Kingdom",
    "latitude":51.009358,
    "longitude":-2.638819
  },
  {
    "id":487,
    "name":"Haverfordwest",
    "city":"Haverfordwest",
    "country":"United Kingdom",
    "latitude":51.833056,
    "longitude":-4.961111
  },
  {
    "id":488,
    "name":"Cardiff",
    "city":"Cardiff",
    "country":"United Kingdom",
    "latitude":51.396667,
    "longitude":-3.343333
  },
  {
    "id":489,
    "name":"Swansea",
    "city":"Swansea",
    "country":"United Kingdom",
    "latitude":51.605333,
    "longitude":-4.067833
  },
  {
    "id":490,
    "name":"Bristol",
    "city":"Bristol",
    "country":"United Kingdom",
    "latitude":51.382669,
    "longitude":-2.719089
  },
  {
    "id":491,
    "name":"Liverpool",
    "city":"Liverpool",
    "country":"United Kingdom",
    "latitude":53.333611,
    "longitude":-2.849722
  },
  {
    "id":492,
    "name":"Luton",
    "city":"London",
    "country":"United Kingdom",
    "latitude":51.874722,
    "longitude":-0.368333
  },
  {
    "id":493,
    "name":"Plymouth",
    "city":"Plymouth",
    "country":"United Kingdom",
    "latitude":50.422778,
    "longitude":-4.105833
  },
  {
    "id":494,
    "name":"Bournemouth",
    "city":"Bournemouth",
    "country":"United Kingdom",
    "latitude":50.78,
    "longitude":-1.8425
  },
  {
    "id":495,
    "name":"Southampton",
    "city":"Southampton",
    "country":"United Kingdom",
    "latitude":50.950261,
    "longitude":-1.356803
  },
  {
    "id":496,
    "name":"Lasham",
    "city":"Lasham",
    "country":"United Kingdom",
    "latitude":51.187167,
    "longitude":-1.0335
  },
  {
    "id":497,
    "name":"Alderney",
    "city":"Alderney",
    "country":"Guernsey",
    "latitude":49.706111,
    "longitude":-2.214722
  },
  {
    "id":498,
    "name":"Guernsey",
    "city":"Guernsey",
    "country":"Guernsey",
    "latitude":49.434956,
    "longitude":-2.601969
  },
  {
    "id":499,
    "name":"Jersey",
    "city":"Jersey",
    "country":"Jersey",
    "latitude":49.207947,
    "longitude":-2.195508
  },
  {
    "id":500,
    "name":"Shoreham",
    "city":"Shoreham By Sea",
    "country":"United Kingdom",
    "latitude":50.835556,
    "longitude":-0.297222
  },
  {
    "id":501,
    "name":"Biggin Hill",
    "city":"Biggin Hill",
    "country":"United Kingdom",
    "latitude":51.330833,
    "longitude":0.0325
  },
  {
    "id":502,
    "name":"Gatwick",
    "city":"London",
    "country":"United Kingdom",
    "latitude":51.148056,
    "longitude":-0.190278
  },
  {
    "id":503,
    "name":"city",
    "city":"London",
    "country":"United Kingdom",
    "latitude":51.505278,
    "longitude":0.055278
  },
  {
    "id":504,
    "name":"Farnborough",
    "city":"Farnborough",
    "country":"United Kingdom",
    "latitude":51.275833,
    "longitude":-0.776333
  },
  {
    "id":505,
    "name":"Chalgrove",
    "city":"Chalsgrove",
    "country":"United Kingdom",
    "latitude":51.676111,
    "longitude":-1.080833
  },
  {
    "id":506,
    "name":"Blackbushe",
    "city":"Blackbushe",
    "country":"United Kingdom",
    "latitude":51.323889,
    "longitude":-0.8475
  },
  {
    "id":507,
    "name":"Heathrow",
    "city":"London",
    "country":"United Kingdom",
    "latitude":51.4775,
    "longitude":-0.461389
  },
  {
    "id":508,
    "name":"Southend",
    "city":"Southend",
    "country":"United Kingdom",
    "latitude":51.571389,
    "longitude":0.695556
  },
  {
    "id":509,
    "name":"Lydd",
    "city":"Lydd",
    "country":"United Kingdom",
    "latitude":50.956111,
    "longitude":0.939167
  },
  {
    "id":510,
    "name":"Manston",
    "city":"Manston",
    "country":"United Kingdom",
    "latitude":51.342222,
    "longitude":1.346111
  },
  {
    "id":511,
    "name":"Brough",
    "city":"Brough",
    "country":"United Kingdom",
    "latitude":53.719667,
    "longitude":-0.566333
  },
  {
    "id":512,
    "name":"Carlisle",
    "city":"Carlisle",
    "country":"United Kingdom",
    "latitude":54.9375,
    "longitude":-2.809167
  },
  {
    "id":513,
    "name":"Gamston",
    "city":"Repton",
    "country":"United Kingdom",
    "latitude":53.280556,
    "longitude":-0.951389
  },
  {
    "id":514,
    "name":"Blackpool",
    "city":"Blackpool",
    "country":"United Kingdom",
    "latitude":53.771667,
    "longitude":-3.028611
  },
  {
    "id":515,
    "name":"Humberside",
    "city":"Humberside",
    "country":"United Kingdom",
    "latitude":53.574444,
    "longitude":-0.350833
  },
  {
    "id":516,
    "name":"Walney Island",
    "city":"Barrow Island",
    "country":"United Kingdom",
    "latitude":54.131167,
    "longitude":-3.263667
  },
  {
    "id":517,
    "name":"Leeds Bradford",
    "city":"Leeds",
    "country":"United Kingdom",
    "latitude":53.865897,
    "longitude":-1.660569
  },
  {
    "id":518,
    "name":"Warton",
    "city":"Warton",
    "country":"United Kingdom",
    "latitude":53.745097,
    "longitude":-2.883061
  },
  {
    "id":519,
    "name":"Hawarden",
    "city":"Hawarden",
    "country":"United Kingdom",
    "latitude":53.178056,
    "longitude":-2.977778
  },
  {
    "id":520,
    "name":"Isle Of Man",
    "city":"Isle Of Man",
    "country":"Isle of Man",
    "latitude":54.083333,
    "longitude":-4.623889
  },
  {
    "id":521,
    "name":"Newcastle",
    "city":"Newcastle",
    "country":"United Kingdom",
    "latitude":55.0375,
    "longitude":-1.691667
  },
  {
    "id":522,
    "name":"Durham Tees Valley Airport",
    "city":"Teesside",
    "country":"United Kingdom",
    "latitude":54.509189,
    "longitude":-1.429406
  },
  {
    "id":523,
    "name":"Nottingham East Midlands",
    "city":"East Midlands",
    "country":"United Kingdom",
    "latitude":52.831111,
    "longitude":-1.328056
  },
  {
    "id":524,
    "name":"Llanbedr",
    "city":"Llanbedr",
    "country":"United Kingdom",
    "latitude":52.811744,
    "longitude":-4.123575
  },
  {
    "id":525,
    "name":"Ternhill",
    "city":"Ternhill",
    "country":"United Kingdom",
    "latitude":52.871164,
    "longitude":-2.533561
  },
  {
    "id":526,
    "name":"Shawbury",
    "city":"Shawbury",
    "country":"United Kingdom",
    "latitude":52.798169,
    "longitude":-2.668042
  },
  {
    "id":528,
    "name":"Woodvale",
    "city":"Woodvale",
    "country":"United Kingdom",
    "latitude":53.581575,
    "longitude":-3.055522
  },
  {
    "id":529,
    "name":"Kirkwall",
    "city":"Kirkwall",
    "country":"United Kingdom",
    "latitude":58.957778,
    "longitude":-2.905
  },
  {
    "id":530,
    "name":"Sumburgh",
    "city":"Sumburgh",
    "country":"United Kingdom",
    "latitude":59.878889,
    "longitude":-1.295556
  },
  {
    "id":531,
    "name":"Wick",
    "city":"Wick",
    "country":"United Kingdom",
    "latitude":58.458889,
    "longitude":-3.093056
  },
  {
    "id":532,
    "name":"Dyce",
    "city":"Aberdeen",
    "country":"United Kingdom",
    "latitude":57.201944,
    "longitude":-2.197778
  },
  {
    "id":533,
    "name":"Inverness",
    "city":"Inverness",
    "country":"United Kingdom",
    "latitude":57.5425,
    "longitude":-4.0475
  },
  {
    "id":534,
    "name":"Glasgow",
    "city":"Glasgow",
    "country":"United Kingdom",
    "latitude":55.871944,
    "longitude":-4.433056
  },
  {
    "id":535,
    "name":"Edinburgh",
    "city":"Edinburgh",
    "country":"United Kingdom",
    "latitude":55.95,
    "longitude":-3.3725
  },
  {
    "id":536,
    "name":"Islay",
    "city":"Islay",
    "country":"United Kingdom",
    "latitude":55.681944,
    "longitude":-6.256667
  },
  {
    "id":537,
    "name":"Prestwick",
    "city":"Prestwick",
    "country":"United Kingdom",
    "latitude":55.509444,
    "longitude":-4.586667
  },
  {
    "id":538,
    "name":"Benbecula",
    "city":"Benbecula",
    "country":"United Kingdom",
    "latitude":57.481111,
    "longitude":-7.362778
  },
  {
    "id":539,
    "name":"Scatsta",
    "city":"Scatsta",
    "country":"United Kingdom",
    "latitude":60.432778,
    "longitude":-1.296111
  },
  {
    "id":540,
    "name":"Dundee",
    "city":"Dundee",
    "country":"United Kingdom",
    "latitude":56.452499,
    "longitude":-3.025833
  },
  {
    "id":541,
    "name":"Stornoway",
    "city":"Stornoway",
    "country":"United Kingdom",
    "latitude":58.215556,
    "longitude":-6.331111
  },
  {
    "id":542,
    "name":"Tiree",
    "city":"Tiree",
    "country":"United Kingdom",
    "latitude":56.499167,
    "longitude":-6.869167
  },
  {
    "id":543,
    "name":"Leuchars",
    "city":"Leuchars",
    "country":"United Kingdom",
    "latitude":56.372889,
    "longitude":-2.868444
  },
  {
    "id":544,
    "name":"Lossiemouth",
    "city":"Lossiemouth",
    "country":"United Kingdom",
    "latitude":57.705214,
    "longitude":-3.339169
  },
  {
    "id":545,
    "name":"Cambridge",
    "city":"Cambridge",
    "country":"United Kingdom",
    "latitude":52.205,
    "longitude":0.175
  },
  {
    "id":546,
    "name":"Conington",
    "city":"Peterborough",
    "country":"United Kingdom",
    "latitude":52.468056,
    "longitude":-0.251111
  },
  {
    "id":547,
    "name":"Norwich",
    "city":"Norwich",
    "country":"United Kingdom",
    "latitude":52.675833,
    "longitude":1.282778
  },
  {
    "id":548,
    "name":"Stansted",
    "city":"London",
    "country":"United Kingdom",
    "latitude":51.885,
    "longitude":0.235
  },
  {
    "id":549,
    "name":"North Weald",
    "city":"North Weald",
    "country":"United Kingdom",
    "latitude":51.721667,
    "longitude":0.154167
  },
  {
    "id":550,
    "name":"Sheffield city",
    "city":"Fowlmere",
    "country":"United Kingdom",
    "latitude":53.394256,
    "longitude":-1.388486
  },
  {
    "id":551,
    "name":"Cranfield",
    "city":"Cranfield",
    "country":"United Kingdom",
    "latitude":52.072222,
    "longitude":-0.616667
  },
  {
    "id":552,
    "name":"Exeter",
    "city":"Exeter",
    "country":"United Kingdom",
    "latitude":50.734444,
    "longitude":-3.413889
  },
  {
    "id":553,
    "name":"Bristol Filton",
    "city":"Bristol",
    "country":"United Kingdom",
    "latitude":51.519444,
    "longitude":-2.590833
  },
  {
    "id":554,
    "name":"Kidlington",
    "city":"Oxford",
    "country":"United Kingdom",
    "latitude":51.836944,
    "longitude":-1.32
  },
  {
    "id":555,
    "name":"Benson",
    "city":"Benson",
    "country":"United Kingdom",
    "latitude":51.616389,
    "longitude":-1.095833
  },
  {
    "id":556,
    "name":"Lakenheath",
    "city":"Lakenheath",
    "country":"United Kingdom",
    "latitude":52.409333,
    "longitude":0.561
  },
  {
    "id":557,
    "name":"Mildenhall",
    "city":"Mildenhall",
    "country":"United Kingdom",
    "latitude":52.361933,
    "longitude":0.486406
  },
  {
    "id":558,
    "name":"Wattisham",
    "city":"Wattisham",
    "country":"United Kingdom",
    "latitude":52.127283,
    "longitude":0.956264
  },
  {
    "id":559,
    "name":"Wyton",
    "city":"Wyton",
    "country":"United Kingdom",
    "latitude":52.357167,
    "longitude":-0.107833
  },
  {
    "id":560,
    "name":"Fairford",
    "city":"Fairford",
    "country":"United Kingdom",
    "latitude":51.682167,
    "longitude":-1.790028
  },
  {
    "id":561,
    "name":"Brize Norton",
    "city":"Brize Norton",
    "country":"United Kingdom",
    "latitude":51.749964,
    "longitude":-1.583617
  },
  {
    "id":562,
    "name":"Odiham",
    "city":"Odiham",
    "country":"United Kingdom",
    "latitude":51.234139,
    "longitude":-0.942825
  },
  {
    "id":563,
    "name":"Cosford",
    "city":"Cosford",
    "country":"United Kingdom",
    "latitude":52.640028,
    "longitude":-2.305578
  },
  {
    "id":564,
    "name":"Northolt",
    "city":"Northolt",
    "country":"United Kingdom",
    "latitude":51.553,
    "longitude":-0.418167
  },
  {
    "id":565,
    "name":"Coningsby",
    "city":"Coningsby",
    "country":"United Kingdom",
    "latitude":53.093014,
    "longitude":-0.166014
  },
  {
    "id":566,
    "name":"Dishforth",
    "city":"Dishforth",
    "country":"United Kingdom",
    "latitude":54.137186,
    "longitude":-1.420253
  },
  {
    "id":567,
    "name":"Leeming",
    "city":"Leeming",
    "country":"United Kingdom",
    "latitude":54.292383,
    "longitude":-1.5354
  },
  {
    "id":568,
    "name":"Church Fenton",
    "city":"Church Fenton",
    "country":"United Kingdom",
    "latitude":53.834333,
    "longitude":-1.1955
  },
  {
    "id":569,
    "name":"Honington",
    "city":"Honington",
    "country":"United Kingdom",
    "latitude":52.342611,
    "longitude":0.772939
  },
  {
    "id":570,
    "name":"Cottesmore",
    "city":"Cottesmore",
    "country":"United Kingdom",
    "latitude":52.735711,
    "longitude":-0.648769
  },
  {
    "id":571,
    "name":"Scampton",
    "city":"Scampton",
    "country":"United Kingdom",
    "latitude":53.307778,
    "longitude":-0.550833
  },
  {
    "id":572,
    "name":"Wittering",
    "city":"Wittering",
    "country":"United Kingdom",
    "latitude":52.612558,
    "longitude":-0.476453
  },
  {
    "id":573,
    "name":"Linton On Ouse",
    "city":"Linton-on-ouse",
    "country":"United Kingdom",
    "latitude":54.048911,
    "longitude":-1.252747
  },
  {
    "id":574,
    "name":"Waddington",
    "city":"Waddington",
    "country":"United Kingdom",
    "latitude":53.166167,
    "longitude":-0.523811
  },
  {
    "id":575,
    "name":"Topcliffe",
    "city":"Topcliffe",
    "country":"United Kingdom",
    "latitude":54.205522,
    "longitude":-1.382094
  },
  {
    "id":576,
    "name":"Cranwell",
    "city":"Cranwell",
    "country":"United Kingdom",
    "latitude":53.03035,
    "longitude":-0.483242
  },
  {
    "id":577,
    "name":"Barkston Heath",
    "city":"Barkston Heath",
    "country":"United Kingdom",
    "latitude":52.962225,
    "longitude":-0.561625
  },
  {
    "id":578,
    "name":"Marham",
    "city":"Marham",
    "country":"United Kingdom",
    "latitude":52.648353,
    "longitude":0.550692
  },
  {
    "id":579,
    "name":"Mount Pleasant",
    "city":"Mount Pleasant",
    "country":"Falkland Islands",
    "latitude":-51.822777,
    "longitude":-58.447222
  },
  {
    "id":580,
    "name":"Schiphol",
    "city":"Amsterdam",
    "country":"Netherlands",
    "latitude":52.308613,
    "longitude":4.763889
  },
  {
    "id":581,
    "name":"Budel",
    "city":"Weert",
    "country":"Netherlands",
    "latitude":51.25528,
    "longitude":5.601389
  },
  {
    "id":582,
    "name":"Maastricht",
    "city":"Maastricht",
    "country":"Netherlands",
    "latitude":50.911658,
    "longitude":5.770144
  },
  {
    "id":583,
    "name":"Deelen",
    "city":"Deelen",
    "country":"Netherlands",
    "latitude":52.060556,
    "longitude":5.873056
  },
  {
    "id":584,
    "name":"Drachten",
    "city":"Drachten",
    "country":"Netherlands",
    "latitude":53.119167,
    "longitude":6.129722
  },
  {
    "id":585,
    "name":"Eindhoven",
    "city":"Eindhoven",
    "country":"Netherlands",
    "latitude":51.450139,
    "longitude":5.374528
  },
  {
    "id":586,
    "name":"Eelde",
    "city":"Groningen",
    "country":"Netherlands",
    "latitude":53.11972,
    "longitude":6.579444
  },
  {
    "id":587,
    "name":"Gilze Rijen",
    "city":"Gilze-rijen",
    "country":"Netherlands",
    "latitude":51.567389,
    "longitude":4.931833
  },
  {
    "id":588,
    "name":"De Kooy",
    "city":"De Kooy",
    "country":"Netherlands",
    "latitude":52.923353,
    "longitude":4.780625
  },
  {
    "id":589,
    "name":"Lelystad",
    "city":"Lelystad",
    "country":"Netherlands",
    "latitude":52.460278,
    "longitude":5.527222
  },
  {
    "id":590,
    "name":"Leeuwarden",
    "city":"Leeuwarden",
    "country":"Netherlands",
    "latitude":53.228611,
    "longitude":5.760556
  },
  {
    "id":591,
    "name":"Rotterdam",
    "city":"Rotterdam",
    "country":"Netherlands",
    "latitude":51.956944,
    "longitude":4.437222
  },
  {
    "id":592,
    "name":"Soesterberg",
    "city":"Soesterberg",
    "country":"Netherlands",
    "latitude":52.1273,
    "longitude":5.27619
  },
  {
    "id":593,
    "name":"Twenthe",
    "city":"Enschede",
    "country":"Netherlands",
    "latitude":52.27,
    "longitude":6.874167
  },
  {
    "id":594,
    "name":"Valkenburg",
    "city":"Valkenburg",
    "country":"Netherlands",
    "latitude":52.166139,
    "longitude":4.417944
  },
  {
    "id":595,
    "name":"Woensdrecht",
    "city":"Woensdrecht",
    "country":"Netherlands",
    "latitude":51.449092,
    "longitude":4.342031
  },
  {
    "id":596,
    "name":"Cork",
    "city":"Cork",
    "country":"Ireland",
    "latitude":51.841269,
    "longitude":-8.491111
  },
  {
    "id":597,
    "name":"Galway",
    "city":"Galway",
    "country":"Ireland",
    "latitude":53.300175,
    "longitude":-8.941592
  },
  {
    "id":599,
    "name":"Dublin",
    "city":"Dublin",
    "country":"Ireland",
    "latitude":53.421333,
    "longitude":-6.270075
  },
  {
    "id":600,
    "name":"Ireland West Knock",
    "city":"Connaught",
    "country":"Ireland",
    "latitude":53.910297,
    "longitude":-8.818492
  },
  {
    "id":601,
    "name":"Kerry",
    "city":"Kerry",
    "country":"Ireland",
    "latitude":52.180878,
    "longitude":-9.523783
  },
  {
    "id":602,
    "name":"Casement",
    "city":"Casement",
    "country":"Ireland",
    "latitude":53.301667,
    "longitude":-6.451333
  },
  {
    "id":603,
    "name":"Shannon",
    "city":"Shannon",
    "country":"Ireland",
    "latitude":52.701978,
    "longitude":-8.924817
  },
  {
    "id":604,
    "name":"Sligo",
    "city":"Sligo",
    "country":"Ireland",
    "latitude":54.280214,
    "longitude":-8.599206
  },
  {
    "id":605,
    "name":"Waterford",
    "city":"Waterford",
    "country":"Ireland",
    "latitude":52.1872,
    "longitude":-7.086964
  },
  {
    "id":607,
    "name":"Aarhus",
    "city":"Aarhus",
    "country":"Denmark",
    "latitude":56.300017,
    "longitude":10.619008
  },
  {
    "id":608,
    "name":"Billund",
    "city":"Billund",
    "country":"Denmark",
    "latitude":55.740322,
    "longitude":9.151778
  },
  {
    "id":609,
    "name":"Kastrup",
    "city":"Copenhagen",
    "country":"Denmark",
    "latitude":55.617917,
    "longitude":12.655972
  },
  {
    "id":610,
    "name":"Esbjerg",
    "city":"Esbjerg",
    "country":"Denmark",
    "latitude":55.525942,
    "longitude":8.553403
  },
  {
    "id":611,
    "name":"Gronholt Hillerod",
    "city":"Gronholt",
    "country":"Denmark",
    "latitude":55.941387,
    "longitude":12.382222
  },
  {
    "id":612,
    "name":"Karup",
    "city":"Karup",
    "country":"Denmark",
    "latitude":56.297458,
    "longitude":9.124628
  },
  {
    "id":613,
    "name":"Laeso",
    "city":"Laeso",
    "country":"Denmark",
    "latitude":57.277228,
    "longitude":11.000083
  },
  {
    "id":614,
    "name":"Lolland Falster Maribo",
    "city":"Maribo",
    "country":"Denmark",
    "latitude":54.699344,
    "longitude":11.440117
  },
  {
    "id":615,
    "name":"Odense",
    "city":"Odense",
    "country":"Denmark",
    "latitude":55.476664,
    "longitude":10.330933
  },
  {
    "id":616,
    "name":"Krusa Padborg",
    "city":"Krusa-padborg",
    "country":"Denmark",
    "latitude":54.870306,
    "longitude":9.279014
  },
  {
    "id":617,
    "name":"Roskilde",
    "city":"Copenhagen",
    "country":"Denmark",
    "latitude":55.585567,
    "longitude":12.131428
  },
  {
    "id":618,
    "name":"Bornholm Ronne",
    "city":"Ronne",
    "country":"Denmark",
    "latitude":55.063267,
    "longitude":14.759558
  },
  {
    "id":619,
    "name":"Sonderborg",
    "city":"Soenderborg",
    "country":"Denmark",
    "latitude":54.964367,
    "longitude":9.791731
  },
  {
    "id":621,
    "name":"Skrydstrup",
    "city":"Skrydstrup",
    "country":"Denmark",
    "latitude":55.225553,
    "longitude":9.263931
  },
  {
    "id":622,
    "name":"Skive",
    "city":"Skive",
    "country":"Denmark",
    "latitude":56.550208,
    "longitude":9.172983
  },
  {
    "id":623,
    "name":"Thisted",
    "city":"Thisted",
    "country":"Denmark",
    "latitude":57.0688,
    "longitude":8.705225
  },
  {
    "id":624,
    "name":"Kolding Vamdrup",
    "city":"Kolding",
    "country":"Denmark",
    "latitude":55.436283,
    "longitude":9.330925
  },
  {
    "id":625,
    "name":"Vagar",
    "city":"Vagar",
    "country":"Faroe Islands",
    "latitude":62.063628,
    "longitude":-7.277219
  },
  {
    "id":626,
    "name":"Aars",
    "city":"Vesthimmerland",
    "country":"Denmark",
    "latitude":56.846944,
    "longitude":9.458611
  },
  {
    "id":627,
    "name":"Stauning",
    "city":"Stauning",
    "country":"Denmark",
    "latitude":55.990122,
    "longitude":8.353906
  },
  {
    "id":628,
    "name":"Aalborg",
    "city":"Aalborg",
    "country":"Denmark",
    "latitude":57.092789,
    "longitude":9.849164
  },
  {
    "id":629,
    "name":"Luxembourg",
    "city":"Luxemburg",
    "country":"Luxembourg",
    "latitude":49.626575,
    "longitude":6.211517
  },
  {
    "id":630,
    "name":"Vigra",
    "city":"Alesund",
    "country":"Norway",
    "latitude":62.560372,
    "longitude":6.110164
  },
  {
    "id":631,
    "name":"Andenes",
    "city":"Andoya",
    "country":"Norway",
    "latitude":69.2925,
    "longitude":16.144167
  },
  {
    "id":632,
    "name":"Alta",
    "city":"Alta",
    "country":"Norway",
    "latitude":69.976111,
    "longitude":23.371667
  },
  {
    "id":633,
    "name":"Bomoen",
    "city":"Voss",
    "country":"Norway",
    "latitude":60.63885,
    "longitude":6.501497
  },
  {
    "id":634,
    "name":"Bronnoy",
    "city":"Bronnoysund",
    "country":"Norway",
    "latitude":65.461111,
    "longitude":12.2175
  },
  {
    "id":635,
    "name":"Bodo",
    "city":"Bodo",
    "country":"Norway",
    "latitude":67.269167,
    "longitude":14.365278
  },
  {
    "id":636,
    "name":"Flesland",
    "city":"Bergen",
    "country":"Norway",
    "latitude":60.293386,
    "longitude":5.218142
  },
  {
    "id":637,
    "name":"Batsfjord",
    "city":"Batsfjord",
    "country":"Norway",
    "latitude":70.600278,
    "longitude":29.6925
  },
  {
    "id":638,
    "name":"Kjevik",
    "city":"Kristiansand",
    "country":"Norway",
    "latitude":58.204214,
    "longitude":8.085369
  },
  {
    "id":639,
    "name":"Dagali",
    "city":"Geilo",
    "country":"Norway",
    "latitude":60.416667,
    "longitude":8.512778
  },
  {
    "id":640,
    "name":"Bardufoss",
    "city":"Bardufoss",
    "country":"Norway",
    "latitude":69.055758,
    "longitude":18.540356
  },
  {
    "id":641,
    "name":"Evenes",
    "city":"Harstad/Narvik",
    "country":"Norway",
    "latitude":68.4913,
    "longitude":16.678108
  },
  {
    "id":642,
    "name":"Leirin",
    "city":"Fagernes",
    "country":"Norway",
    "latitude":61.015556,
    "longitude":9.288056
  },
  {
    "id":643,
    "name":"Floro",
    "city":"Floro",
    "country":"Norway",
    "latitude":61.583611,
    "longitude":5.024722
  },
  {
    "id":644,
    "name":"Gardermoen",
    "city":"Oslo",
    "country":"Norway",
    "latitude":60.193917,
    "longitude":11.100361
  },
  {
    "id":645,
    "name":"Karmoy",
    "city":"Haugesund",
    "country":"Norway",
    "latitude":59.345267,
    "longitude":5.208364
  },
  {
    "id":646,
    "name":"Hasvik",
    "city":"Hasvik",
    "country":"Norway",
    "latitude":70.486675,
    "longitude":22.139744
  },
  {
    "id":647,
    "name":"Kvernberget",
    "city":"Kristiansund",
    "country":"Norway",
    "latitude":63.111781,
    "longitude":7.824522
  },
  {
    "id":648,
    "name":"Kjeller",
    "city":"Kjeller",
    "country":"Norway",
    "latitude":59.969336,
    "longitude":11.036089
  },
  {
    "id":649,
    "name":"Hoybuktmoen",
    "city":"Kirkenes",
    "country":"Norway",
    "latitude":69.725781,
    "longitude":29.891295
  },
  {
    "id":650,
    "name":"Lista",
    "city":"Farsund",
    "country":"Norway",
    "latitude":58.099486,
    "longitude":6.62605
  },
  {
    "id":651,
    "name":"Aro",
    "city":"Molde",
    "country":"Norway",
    "latitude":62.744722,
    "longitude":7.2625
  },
  {
    "id":652,
    "name":"Kjaerstad",
    "city":"Mosjoen",
    "country":"Norway",
    "latitude":65.783997,
    "longitude":13.214914
  },
  {
    "id":653,
    "name":"Banak",
    "city":"Lakselv",
    "country":"Norway",
    "latitude":70.068814,
    "longitude":24.973489
  },
  {
    "id":654,
    "name":"Notodden",
    "city":"Notodden",
    "country":"Norway",
    "latitude":59.565683,
    "longitude":9.212222
  },
  {
    "id":655,
    "name":"Orland",
    "city":"Orland",
    "country":"Norway",
    "latitude":63.698908,
    "longitude":9.604003
  },
  {
    "id":656,
    "name":"Roros",
    "city":"Roros",
    "country":"Norway",
    "latitude":62.578411,
    "longitude":11.342347
  },
  {
    "id":657,
    "name":"Moss",
    "city":"Rygge",
    "country":"Norway",
    "latitude":59.378933,
    "longitude":10.785389
  },
  {
    "id":658,
    "name":"Longyear",
    "city":"Svalbard",
    "country":"Norway",
    "latitude":78.246111,
    "longitude":15.465556
  },
  {
    "id":659,
    "name":"Geiteryggen",
    "city":"Skien",
    "country":"Norway",
    "latitude":59.185,
    "longitude":9.566944
  },
  {
    "id":660,
    "name":"Sorstokken",
    "city":"Stord",
    "country":"Norway",
    "latitude":59.791925,
    "longitude":5.34085
  },
  {
    "id":662,
    "name":"Stokka",
    "city":"Sandnessjoen",
    "country":"Norway",
    "latitude":65.956828,
    "longitude":12.468944
  },
  {
    "id":663,
    "name":"Langnes",
    "city":"Tromso",
    "country":"Norway",
    "latitude":69.683333,
    "longitude":18.918919
  },
  {
    "id":664,
    "name":"Torp",
    "city":"Sandefjord",
    "country":"Norway",
    "latitude":59.186703,
    "longitude":10.258628
  },
  {
    "id":665,
    "name":"Vaernes",
    "city":"Trondheim",
    "country":"Norway",
    "latitude":63.457556,
    "longitude":10.92425
  },
  {
    "id":666,
    "name":"Sola",
    "city":"Stavanger",
    "country":"Norway",
    "latitude":58.876778,
    "longitude":5.637856
  },
  {
    "id":667,
    "name":"Babice",
    "city":"Warsaw",
    "country":"Poland",
    "latitude":52.268494,
    "longitude":20.911047
  },
  {
    "id":668,
    "name":"Lech Walesa",
    "city":"Gdansk",
    "country":"Poland",
    "latitude":54.377569,
    "longitude":18.466222
  },
  {
    "id":669,
    "name":"Balice",
    "city":"Krakow",
    "country":"Poland",
    "latitude":50.077731,
    "longitude":19.784836
  },
  {
    "id":670,
    "name":"Muchowiec",
    "city":"Katowice",
    "country":"Poland",
    "latitude":50.238147,
    "longitude":19.034181
  },
  {
    "id":671,
    "name":"Pyrzowice",
    "city":"Katowice",
    "country":"Poland",
    "latitude":50.474253,
    "longitude":19.080019
  },
  {
    "id":673,
    "name":"Mielec",
    "city":"Mielec",
    "country":"Poland",
    "latitude":50.322275,
    "longitude":21.462131
  },
  {
    "id":674,
    "name":"Lawica",
    "city":"Poznan",
    "country":"Poland",
    "latitude":52.421031,
    "longitude":16.826325
  },
  {
    "id":675,
    "name":"Jasionka",
    "city":"Rzeszow",
    "country":"Poland",
    "latitude":50.109958,
    "longitude":22.019
  },
  {
    "id":676,
    "name":"Goleniow",
    "city":"Szczecin",
    "country":"Poland",
    "latitude":53.584731,
    "longitude":14.902206
  },
  {
    "id":677,
    "name":"Redzikowo",
    "city":"Slupsk",
    "country":"Poland",
    "latitude":54.478889,
    "longitude":17.1075
  },
  {
    "id":678,
    "name":"Swidwin",
    "city":"Shapaja",
    "country":"Poland",
    "latitude":53.790639,
    "longitude":15.82625
  },
  {
    "id":679,
    "name":"Okecie",
    "city":"Warsaw",
    "country":"Poland",
    "latitude":52.16575,
    "longitude":20.967122
  },